{
  "fields": [
    {
      "name": "cameraId",
      "alias": "Camera ID",
      "type": "esriFieldTypeInteger"
    },
    {
      "name": "publishedImageId",
      "alias": "Published Image ID",
      "type": "esriFieldTypeInteger"
    },
    {
      "name": "filename",
      "alias": "Filename",
      "type": "esriFieldTypeString",
      "length": 255
    },
    {
      "name": "iconType",
      "alias": "Icon Type",
      "type": "esriFieldTypeInteger"
    },
    { "name": "latitude", "alias": "Latitude", "type": "esriFieldTypeDouble" },
    {
      "name": "longitude",
      "alias": "Longitude",
      "type": "esriFieldTypeDouble"
    },
    {
      "name": "route",
      "alias": "Route Name",
      "type": "esriFieldTypeString",
      "length": 6
    },
    {
      "name": "title",
      "alias": "Title",
      "type": "esriFieldTypeString",
      "length": 100
    },
    { "name": "videoId", "alias": "Video ID", "type": "esriFieldTypeInteger" }
  ],
  "geometryType": "esriGeometryPoint",
  "spatialReference": { "wkid": 3857 },
  "features": [
    {
      "attributes": {
        "cameraId": 277,
        "publishedImageId": 392,
        "filename": "AstoriaUS101MeglerBrNB_pid392.jpg",
        "iconType": 1,
        "latitude": 46.18785,
        "longitude": -123.85347,
        "route": "US101 ",
        "title": "US101 at Astoria - ODOT District Office",
        "videoId": 0
      },
      "geometry": { "x": -13787305.211460776, "y": 5810503.585109143 }
    },
    {
      "attributes": {
        "cameraId": 157,
        "publishedImageId": 404,
        "filename": "217allen_pid404.jpg",
        "iconType": 1,
        "latitude": 45.47911,
        "longitude": -122.79119,
        "route": "OR217 ",
        "title": "OR217 at Allen",
        "videoId": 5419
      },
      "geometry": { "x": -13669052.742797358, "y": 5697265.564834039 }
    },
    {
      "attributes": {
        "cameraId": 227,
        "publishedImageId": 497,
        "filename": "i205powl_pid497.jpg",
        "iconType": 1,
        "latitude": 45.49769,
        "longitude": -122.56558,
        "route": "I-205 ",
        "title": "I-205 at Powell",
        "videoId": 5925
      },
      "geometry": { "x": -13643937.952482983, "y": 5700215.861372177 }
    },
    {
      "attributes": {
        "cameraId": 281,
        "publishedImageId": 498,
        "filename": "26Zoo_pid498.jpg",
        "iconType": 1,
        "latitude": 45.50701,
        "longitude": -122.71921,
        "route": "US26  ",
        "title": "US26 at Zoo Bridge",
        "videoId": 5435
      },
      "geometry": { "x": -13661039.965851174, "y": 5701696.139941101 }
    },
    {
      "attributes": {
        "cameraId": 158,
        "publishedImageId": 516,
        "filename": "217denney_pid516.jpg",
        "iconType": 1,
        "latitude": 45.47169,
        "longitude": -122.78583,
        "route": "OR217 ",
        "title": "OR217 at Denney",
        "videoId": 5421
      },
      "geometry": { "x": -13668456.070326788, "y": 5696087.623529942 }
    },
    {
      "attributes": {
        "cameraId": 161,
        "publishedImageId": 517,
        "filename": "217green_pid517.jpg",
        "iconType": 1,
        "latitude": 45.44269,
        "longitude": -122.77623,
        "route": "OR217 ",
        "title": "OR217 at Greenburg",
        "videoId": 5422
      },
      "geometry": { "x": -13667387.403215322, "y": 5691485.29664365 }
    },
    {
      "attributes": {
        "cameraId": 159,
        "publishedImageId": 519,
        "filename": "217hall_pid519.jpg",
        "iconType": 1,
        "latitude": 45.46386,
        "longitude": -122.78636,
        "route": "OR217 ",
        "title": "OR217 at Hall",
        "videoId": 5423
      },
      "geometry": { "x": -13668515.069656901, "y": 5694844.761983143 }
    },
    {
      "attributes": {
        "cameraId": 160,
        "publishedImageId": 520,
        "filename": "217scholls_pid520.jpg",
        "iconType": 1,
        "latitude": 45.45054,
        "longitude": -122.78461,
        "route": "OR217 ",
        "title": "OR217 at Scholls Ferry Road",
        "videoId": 5424
      },
      "geometry": { "x": -13668320.26054804, "y": 5692730.865313673 }
    },
    {
      "attributes": {
        "cameraId": 156,
        "publishedImageId": 521,
        "filename": "217tv_pid521.jpg",
        "iconType": 1,
        "latitude": 45.49098,
        "longitude": -122.79244,
        "route": "OR217 ",
        "title": "OR217 at Tualatin Valley Hwy",
        "videoId": 5425
      },
      "geometry": { "x": -13669191.892160831, "y": 5699150.276024934 }
    },
    {
      "attributes": {
        "cameraId": 155,
        "publishedImageId": 522,
        "filename": "217walker_pid522.jpg",
        "iconType": 1,
        "latitude": 45.49919,
        "longitude": -122.79147,
        "route": "OR217 ",
        "title": "OR217 at Walker",
        "videoId": 5426
      },
      "geometry": { "x": -13669083.912254776, "y": 5700454.087086198 }
    },
    {
      "attributes": {
        "cameraId": 276,
        "publishedImageId": 523,
        "filename": "26_217_pid523.jpg",
        "iconType": 1,
        "latitude": 45.50797,
        "longitude": -122.77776,
        "route": "US26  ",
        "title": "US26 at OR217",
        "videoId": 5433
      },
      "geometry": { "x": -13667557.722036212, "y": 5701848.628908712 }
    },
    {
      "attributes": {
        "cameraId": 248,
        "publishedImageId": 524,
        "filename": "26Bethany_pid524.jpg",
        "iconType": 1,
        "latitude": 45.53288,
        "longitude": -122.8429,
        "route": "US26  ",
        "title": "US26 at Bethany",
        "videoId": 5431
      },
      "geometry": { "x": -13674809.07366548, "y": 5705806.309578383 }
    },
    {
      "attributes": {
        "cameraId": 280,
        "publishedImageId": 525,
        "filename": "26Jefferson_pid525.jpg",
        "iconType": 1,
        "latitude": 45.51246,
        "longitude": -122.70289,
        "route": "US26  ",
        "title": "US26 at Jefferson Off-Ramp",
        "videoId": 5434
      },
      "geometry": { "x": -13659223.23176168, "y": 5702561.867047044 }
    },
    {
      "attributes": {
        "cameraId": 247,
        "publishedImageId": 526,
        "filename": "26Murray_pid526.jpg",
        "iconType": 1,
        "latitude": 45.52189,
        "longitude": -122.81529,
        "route": "US26  ",
        "title": "US26 at Murray",
        "videoId": 5432
      },
      "geometry": { "x": -13671735.542525103, "y": 5704060.011260294 }
    },
    {
      "attributes": {
        "cameraId": 167,
        "publishedImageId": 529,
        "filename": "26tunnelE_pid529.jpg",
        "iconType": 1,
        "latitude": 45.51538,
        "longitude": -122.69277,
        "route": "US26  ",
        "title": "US26 at East Vista Ridge Tunnel",
        "videoId": 5428
      },
      "geometry": { "x": -13658096.67851501, "y": 5703025.74064844 }
    },
    {
      "attributes": {
        "cameraId": 163,
        "publishedImageId": 530,
        "filename": "99wbertha_pid530.jpg",
        "iconType": 1,
        "latitude": 45.47085,
        "longitude": -122.6885,
        "route": "OR99W ",
        "title": "OR99W at Bertha",
        "videoId": 5438
      },
      "geometry": { "x": -13657621.34428939, "y": 5695954.281456544 }
    },
    {
      "attributes": {
        "cameraId": 220,
        "publishedImageId": 532,
        "filename": "i20592nd_pid532.jpg",
        "iconType": 1,
        "latitude": 45.46449,
        "longitude": -122.56808,
        "route": "I-205 ",
        "title": "I-205 at 92nd",
        "videoId": 5915
      },
      "geometry": { "x": -13644216.25120993, "y": 5694944.755951202 }
    },
    {
      "attributes": {
        "cameraId": 103,
        "publishedImageId": 533,
        "filename": "i205arprt_pid533.jpg",
        "iconType": 1,
        "latitude": 45.57143,
        "longitude": -122.54986,
        "route": "I-205 ",
        "title": "I-205 at Airport Way",
        "videoId": 5916
      },
      "geometry": { "x": -13642188.010087955, "y": 5711934.559573145 }
    },
    {
      "attributes": {
        "cameraId": 102,
        "publishedImageId": 534,
        "filename": "i205Killingsworth_pid534.jpg",
        "iconType": 1,
        "latitude": 45.56051,
        "longitude": -122.56265,
        "route": "I-205 ",
        "title": "I-205 at US30BY (Lombard)",
        "videoId": 0
      },
      "geometry": { "x": -13643611.786375006, "y": 5710198.192722956 }
    },
    {
      "attributes": {
        "cameraId": 225,
        "publishedImageId": 535,
        "filename": "i205fstr_pid535.jpg",
        "iconType": 1,
        "latitude": 45.47928,
        "longitude": -122.56554,
        "route": "I-205 ",
        "title": "I-205 at Foster",
        "videoId": 5918
      },
      "geometry": { "x": -13643933.499703355, "y": 5697292.554525173 }
    },
    {
      "attributes": {
        "cameraId": 258,
        "publishedImageId": 536,
        "filename": "i205Gladstone_pid536.jpg",
        "iconType": 1,
        "latitude": 45.38484,
        "longitude": -122.57966,
        "route": "I-205 ",
        "title": "I-205 at Gladstone",
        "videoId": 5919
      },
      "geometry": { "x": -13645505.330913135, "y": 5682311.50923615 }
    },
    {
      "attributes": {
        "cameraId": 105,
        "publishedImageId": 537,
        "filename": "i205govt_pid537.jpg",
        "iconType": 1,
        "latitude": 45.58449,
        "longitude": -122.5433,
        "route": "I-205 ",
        "title": "I-205 at Government Island",
        "videoId": 5920
      },
      "geometry": { "x": -13641457.754228456, "y": 5714011.646827863 }
    },
    {
      "attributes": {
        "cameraId": 257,
        "publishedImageId": 538,
        "filename": "i205hwy212_pid538.jpg",
        "iconType": 1,
        "latitude": 45.40735,
        "longitude": -122.57069,
        "route": "I-205 ",
        "title": "I-205 at OR212 -224",
        "videoId": 5923
      },
      "geometry": { "x": -13644506.795080857, "y": 5685880.002756446 }
    },
    {
      "attributes": {
        "cameraId": 226,
        "publishedImageId": 539,
        "filename": "i205jcrk_pid539.jpg",
        "iconType": 1,
        "latitude": 45.45674,
        "longitude": -122.57375,
        "route": "I-205 ",
        "title": "I-205 at Johnson Creek",
        "videoId": 5921
      },
      "geometry": { "x": -13644847.43272264, "y": 5693714.749091591 }
    },
    {
      "attributes": {
        "cameraId": 256,
        "publishedImageId": 540,
        "filename": "i205Lawnfield_pid540.jpg",
        "iconType": 1,
        "latitude": 45.41857,
        "longitude": -122.57465,
        "route": "I-205 ",
        "title": "I-205 at Lawnfield Rd.",
        "videoId": 5922
      },
      "geometry": { "x": -13644947.62026434, "y": 5687659.232050821 }
    },
    {
      "attributes": {
        "cameraId": 259,
        "publishedImageId": 541,
        "filename": "i205ParkHwy213_pid541.jpg",
        "iconType": 1,
        "latitude": 45.37516,
        "longitude": -122.58771,
        "route": "I-205 ",
        "title": "I-205 at Park Place - OR213",
        "videoId": 5924
      },
      "geometry": { "x": -13646401.452813895, "y": 5680777.382968612 }
    },
    {
      "attributes": {
        "cameraId": 101,
        "publishedImageId": 542,
        "filename": "i205pres_pid542.jpg",
        "iconType": 1,
        "latitude": 45.55555,
        "longitude": -122.56765,
        "route": "I-205 ",
        "title": "I-205 at Prescott St.",
        "videoId": 5926
      },
      "geometry": { "x": -13644168.383828895, "y": 5709409.624729474 }
    },
    {
      "attributes": {
        "cameraId": 228,
        "publishedImageId": 543,
        "filename": "i205strk_pid543.jpg",
        "iconType": 1,
        "latitude": 45.5182,
        "longitude": -122.56474,
        "route": "I-205 ",
        "title": "I-205 at Stark",
        "videoId": 5927
      },
      "geometry": { "x": -13643844.44411073, "y": 5703473.751015647 }
    },
    {
      "attributes": {
        "cameraId": 255,
        "publishedImageId": 544,
        "filename": "i205Sunnyside_pid544.jpg",
        "iconType": 1,
        "latitude": 45.43359,
        "longitude": -122.56556,
        "route": "I-205 ",
        "title": "I-205 at Sunnyside",
        "videoId": 5928
      },
      "geometry": { "x": -13643935.726093171, "y": 5690041.605897719 }
    },
    {
      "attributes": {
        "cameraId": 108,
        "publishedImageId": 545,
        "filename": "i405everett_pid545.jpg",
        "iconType": 1,
        "latitude": 45.52742,
        "longitude": -122.68711,
        "route": "I-405 ",
        "title": "I-405 at Everett",
        "videoId": 5439
      },
      "geometry": { "x": -13657466.610197207, "y": 5704938.679232624 }
    },
    {
      "attributes": {
        "cameraId": 106,
        "publishedImageId": 546,
        "filename": "i405fourth_pid546.jpg",
        "iconType": 1,
        "latitude": 45.50615,
        "longitude": -122.68217,
        "route": "I-405 ",
        "title": "I-405 at Fourth",
        "videoId": 5440
      },
      "geometry": { "x": -13656916.691912764, "y": 5701559.5374492975 }
    },
    {
      "attributes": {
        "cameraId": 107,
        "publishedImageId": 547,
        "filename": "i405montgom_pid547.jpg",
        "iconType": 1,
        "latitude": 45.51248,
        "longitude": -122.68935,
        "route": "I-405 ",
        "title": "I-405 at Montgomery",
        "videoId": 5441
      },
      "geometry": { "x": -13657715.96585655, "y": 5702565.044181628 }
    },
    {
      "attributes": {
        "cameraId": 229,
        "publishedImageId": 548,
        "filename": "i5217_pid548.jpg",
        "iconType": 1,
        "latitude": 45.42083,
        "longitude": -122.7462,
        "route": "I-5   ",
        "title": "I-5 at OR217",
        "videoId": 5443
      },
      "geometry": { "x": -13664044.478907266, "y": 5688017.657911577 }
    },
    {
      "attributes": {
        "cameraId": 116,
        "publishedImageId": 549,
        "filename": "i5at405_pid549.jpg",
        "iconType": 1,
        "latitude": 45.5017,
        "longitude": -122.67338,
        "route": "I-5   ",
        "title": "I-5 at I-405 - Naito Parkway",
        "videoId": 5444
      },
      "geometry": { "x": -13655938.193588828, "y": 5700852.732309626 }
    },
    {
      "attributes": {
        "cameraId": 110,
        "publishedImageId": 550,
        "filename": "i5at99w_pid550.jpg",
        "iconType": 1,
        "latitude": 45.44359,
        "longitude": -122.74062,
        "route": "I-5   ",
        "title": "I-5 at ORE99W - Barbur Blvd.",
        "videoId": 5445
      },
      "geometry": { "x": -13663423.316148726, "y": 5691628.091898279 }
    },
    {
      "attributes": {
        "cameraId": 113,
        "publishedImageId": 551,
        "filename": "i5brier_pid551.jpg",
        "iconType": 1,
        "latitude": 45.46944,
        "longitude": -122.68012,
        "route": "I-5   ",
        "title": "I-5 at Brier Place",
        "videoId": 5446
      },
      "geometry": { "x": -13656688.48695667, "y": 5695730.461729448 }
    },
    {
      "attributes": {
        "cameraId": 111,
        "publishedImageId": 556,
        "filename": "i5capitol_pid556.jpg",
        "iconType": 1,
        "latitude": 45.4538,
        "longitude": -122.71666,
        "route": "I-5   ",
        "title": "I-5 at Capitol",
        "videoId": 5447
      },
      "geometry": { "x": -13660756.101149691, "y": 5693248.18426699 }
    },
    {
      "attributes": {
        "cameraId": 245,
        "publishedImageId": 557,
        "filename": "i5carman_pid557.jpg",
        "iconType": 1,
        "latitude": 45.40815,
        "longitude": -122.74318,
        "route": "I-5   ",
        "title": "I-5 at Carman Drive",
        "videoId": 5884
      },
      "geometry": { "x": -13663708.294045116, "y": 5686006.852322993 }
    },
    {
      "attributes": {
        "cameraId": 130,
        "publishedImageId": 558,
        "filename": "i5columbia_pid558.jpg",
        "iconType": 1,
        "latitude": 45.58639,
        "longitude": -122.68044,
        "route": "I-5   ",
        "title": "I-5 at Columbia",
        "videoId": 5885
      },
      "geometry": { "x": -13656724.10919372, "y": 5714313.866703507 }
    },
    {
      "attributes": {
        "cameraId": 141,
        "publishedImageId": 559,
        "filename": "i5elligs_pid559.jpg",
        "iconType": 1,
        "latitude": 45.33631,
        "longitude": -122.76975,
        "route": "I-5   ",
        "title": "I-5 at Elligsen Rd.",
        "videoId": 5886
      },
      "geometry": { "x": -13666666.052915083, "y": 5674622.915320674 }
    },
    {
      "attributes": {
        "cameraId": 126,
        "publishedImageId": 560,
        "filename": "i5fremont_pid560.jpg",
        "iconType": 1,
        "latitude": 45.54723,
        "longitude": -122.67882,
        "route": "I-5   ",
        "title": "I-5 at Fremont",
        "videoId": 5448
      },
      "geometry": { "x": -13656543.77161866, "y": 5708087.021794815 }
    },
    {
      "attributes": {
        "cameraId": 127,
        "publishedImageId": 561,
        "filename": "i5going_pid561.jpg",
        "iconType": 1,
        "latitude": 45.55775,
        "longitude": -122.67896,
        "route": "I-5   ",
        "title": "I-5 at Going",
        "videoId": 5449
      },
      "geometry": { "x": -13656559.35634737, "y": 5709759.384201071 }
    },
    {
      "attributes": {
        "cameraId": 109,
        "publishedImageId": 562,
        "filename": "i5haines_pid562.jpg",
        "iconType": 1,
        "latitude": 45.4372,
        "longitude": -122.74455,
        "route": "I-5   ",
        "title": "I-5 at Haines",
        "videoId": 5450
      },
      "geometry": { "x": -13663860.801747484, "y": 5690614.294915164 }
    },
    {
      "attributes": {
        "cameraId": 139,
        "publishedImageId": 563,
        "filename": "i5i205_pid563.jpg",
        "iconType": 1,
        "latitude": 45.36809,
        "longitude": -122.75896,
        "route": "I-5   ",
        "title": "I-5 at I-205",
        "videoId": 5887
      },
      "geometry": { "x": -13665464.91560959, "y": 5679657.066185303 }
    },
    {
      "attributes": {
        "cameraId": 138,
        "publishedImageId": 564,
        "filename": "i5lboon_pid564.jpg",
        "iconType": 1,
        "latitude": 45.39657,
        "longitude": -122.74682,
        "route": "I-5   ",
        "title": "I-5 at Lower Boones Road",
        "videoId": 5892
      },
      "geometry": { "x": -13664113.496991548, "y": 5684170.880021438 }
    },
    {
      "attributes": {
        "cameraId": 129,
        "publishedImageId": 565,
        "filename": "i5lombard_pid565.jpg",
        "iconType": 1,
        "latitude": 45.57877,
        "longitude": -122.67886,
        "route": "I-5   ",
        "title": "I-5 at Lombard",
        "videoId": 5891
      },
      "geometry": { "x": -13656548.224398288, "y": 5713101.867682763 }
    },
    {
      "attributes": {
        "cameraId": 115,
        "publishedImageId": 566,
        "filename": "i5macadam_pid566.jpg",
        "iconType": 1,
        "latitude": 45.49423,
        "longitude": -122.6733,
        "route": "I-5   ",
        "title": "I-5 at Macadam",
        "videoId": 5451
      },
      "geometry": { "x": -13655929.288029568, "y": 5699666.378259139 }
    },
    {
      "attributes": {
        "cameraId": 131,
        "publishedImageId": 567,
        "filename": "i5marine_pid567.jpg",
        "iconType": 1,
        "latitude": 45.60408,
        "longitude": -122.68304,
        "route": "I-5   ",
        "title": "I-5 at Marine Drive",
        "videoId": 5893
      },
      "geometry": { "x": -13657013.539869742, "y": 5717128.1839395985 }
    },
    {
      "attributes": {
        "cameraId": 114,
        "publishedImageId": 568,
        "filename": "i5miles_pid568.jpg",
        "iconType": 1,
        "latitude": 45.47135,
        "longitude": -122.67723,
        "route": "I-5   ",
        "title": "I-5 at Miles",
        "videoId": 5452
      },
      "geometry": { "x": -13656366.773628322, "y": 5696033.6514989305 }
    },
    {
      "attributes": {
        "cameraId": 117,
        "publishedImageId": 569,
        "filename": "i5morrison_pid569.jpg",
        "iconType": 1,
        "latitude": 45.52099,
        "longitude": -122.66586,
        "route": "I-5   ",
        "title": "I-5 at Morrison Bridge",
        "videoId": 5453
      },
      "geometry": { "x": -13655101.07101818, "y": 5703917.01741145 }
    },
    {
      "attributes": {
        "cameraId": 140,
        "publishedImageId": 570,
        "filename": "i5norwoo_pid570.jpg",
        "iconType": 1,
        "latitude": 45.35355,
        "longitude": -122.76467,
        "route": "I-5   ",
        "title": "I-5 at Norwood",
        "videoId": 5894
      },
      "geometry": { "x": -13666100.54990193, "y": 5677353.488391398 }
    },
    {
      "attributes": {
        "cameraId": 230,
        "publishedImageId": 571,
        "filename": "i5nyberg_pid571.jpg",
        "iconType": 1,
        "latitude": 45.38287,
        "longitude": -122.75188,
        "route": "I-5   ",
        "title": "I-5 at Nyberg",
        "videoId": 5895
      },
      "geometry": { "x": -13664676.773614883, "y": 5681999.274234534 }
    },
    {
      "attributes": {
        "cameraId": 128,
        "publishedImageId": 572,
        "filename": "i5portlandblvd_pid572.jpg",
        "iconType": 1,
        "latitude": 45.5697,
        "longitude": -122.67895,
        "route": "I-5   ",
        "title": "I-5 at Rosa Parks Way",
        "videoId": 5896
      },
      "geometry": { "x": -13656558.243152462, "y": 5711659.453311099 }
    },
    {
      "attributes": {
        "cameraId": 112,
        "publishedImageId": 573,
        "filename": "i5terwil_pid573.jpg",
        "iconType": 1,
        "latitude": 45.47015,
        "longitude": -122.68909,
        "route": "I-5   ",
        "title": "I-5 at Terwilliger",
        "videoId": 5454
      },
      "geometry": { "x": -13657687.022788945, "y": 5695843.164580116 }
    },
    {
      "attributes": {
        "cameraId": 246,
        "publishedImageId": 574,
        "filename": "i5Victory_pid574.jpg",
        "iconType": 1,
        "latitude": 45.59644,
        "longitude": -122.68373,
        "route": "I-5   ",
        "title": "I-5 at Victory",
        "videoId": 5897
      },
      "geometry": { "x": -13657090.35031838, "y": 5715912.620963352 }
    },
    {
      "attributes": {
        "cameraId": 142,
        "publishedImageId": 575,
        "filename": "i5wilson_pid575.jpg",
        "iconType": 1,
        "latitude": 45.30315,
        "longitude": -122.76901,
        "route": "I-5   ",
        "title": "I-5 at Wilsonville Rd.",
        "videoId": 5898
      },
      "geometry": { "x": -13666583.676491906, "y": 5669373.174834196 }
    },
    {
      "attributes": {
        "cameraId": 154,
        "publishedImageId": 576,
        "filename": "i84102nd_pid576.jpg",
        "iconType": 1,
        "latitude": 45.54448,
        "longitude": -122.55889,
        "route": "I-84  ",
        "title": "I-84 at 102nd",
        "videoId": 5899
      },
      "geometry": { "x": -13643193.225089682, "y": 5707649.906419668 }
    },
    {
      "attributes": {
        "cameraId": 104,
        "publishedImageId": 577,
        "filename": "i84105th_pid577.jpg",
        "iconType": 1,
        "latitude": 45.54766,
        "longitude": -122.55519,
        "route": "I-84  ",
        "title": "I-84 at 105th",
        "videoId": 5900
      },
      "geometry": { "x": -13642781.342973802, "y": 5708155.372677669 }
    },
    {
      "attributes": {
        "cameraId": 146,
        "publishedImageId": 578,
        "filename": "i8428th_pid578.jpg",
        "iconType": 1,
        "latitude": 45.53036,
        "longitude": -122.63511,
        "route": "I-84  ",
        "title": "I-84 at 28th",
        "videoId": 5456
      },
      "geometry": { "x": -13651677.996676763, "y": 5705405.854337526 }
    },
    {
      "attributes": {
        "cameraId": 147,
        "publishedImageId": 579,
        "filename": "i8437th_pid579.jpg",
        "iconType": 1,
        "latitude": 45.53392,
        "longitude": -122.62568,
        "route": "I-84  ",
        "title": "I-84 at 37th",
        "videoId": 5901
      },
      "geometry": { "x": -13650628.25387873, "y": 5705971.58205136 }
    },
    {
      "attributes": {
        "cameraId": 148,
        "publishedImageId": 580,
        "filename": "i8453rd_pid580.jpg",
        "iconType": 1,
        "latitude": 45.52723,
        "longitude": -122.60881,
        "route": "I-84  ",
        "title": "I-84 at 53rd",
        "videoId": 5902
      },
      "geometry": { "x": -13648750.294069308, "y": 5704908.4884842215 }
    },
    {
      "attributes": {
        "cameraId": 150,
        "publishedImageId": 582,
        "filename": "i8482nd_pid582.jpg",
        "iconType": 1,
        "latitude": 45.53289,
        "longitude": -122.57891,
        "route": "I-84  ",
        "title": "I-84 at 82nd",
        "videoId": 5904
      },
      "geometry": { "x": -13645421.841295052, "y": 5705807.898722226 }
    },
    {
      "attributes": {
        "cameraId": 153,
        "publishedImageId": 583,
        "filename": "i84at205_pid583.jpg",
        "iconType": 1,
        "latitude": 45.53111,
        "longitude": -122.5658,
        "route": "I-84  ",
        "title": "I-84 at I-205",
        "videoId": 5907
      },
      "geometry": { "x": -13643962.442770956, "y": 5705525.035569538 }
    },
    {
      "attributes": {
        "cameraId": 143,
        "publishedImageId": 584,
        "filename": "i84grand_pid584.jpg",
        "iconType": 1,
        "latitude": 45.52549,
        "longitude": -122.66043,
        "route": "I-84  ",
        "title": "I-84 at Grand",
        "videoId": 0
      },
      "geometry": { "x": -13654496.606183257, "y": 5704632.009531323 }
    },
    {
      "attributes": {
        "cameraId": 152,
        "publishedImageId": 585,
        "filename": "i84halseyl_pid585.jpg",
        "iconType": 1,
        "latitude": 45.53213,
        "longitude": -122.5659,
        "route": "I-84  ",
        "title": "I-84 at Halsey (Lower)",
        "videoId": 5906
      },
      "geometry": { "x": -13643973.574720032, "y": 5705687.12459556 }
    },
    {
      "attributes": {
        "cameraId": 145,
        "publishedImageId": 587,
        "filename": "i84lloyd_pid587.jpg",
        "iconType": 1,
        "latitude": 45.52976,
        "longitude": -122.64923,
        "route": "I-84  ",
        "title": "I-84 at Lloyd Blvd",
        "videoId": 5458
      },
      "geometry": { "x": -13653249.827886547, "y": 5705310.510496159 }
    },
    {
      "attributes": {
        "cameraId": 144,
        "publishedImageId": 588,
        "filename": "i84metro_pid588.jpg",
        "iconType": 1,
        "latitude": 45.52746,
        "longitude": -122.66069,
        "route": "I-84  ",
        "title": "I-84 at Metro Bldg.",
        "videoId": 5459
      },
      "geometry": { "x": -13654525.54925086, "y": 5704945.035192652 }
    },
    {
      "attributes": {
        "cameraId": 164,
        "publishedImageId": 590,
        "filename": "26pwlmilw_pid590.jpg",
        "iconType": 1,
        "latitude": 45.50129,
        "longitude": -122.6541,
        "route": "US26  ",
        "title": "US26 at Milwaukie",
        "videoId": 5429
      },
      "geometry": { "x": -13653791.953806633, "y": 5700787.613747985 }
    },
    {
      "attributes": {
        "cameraId": 165,
        "publishedImageId": 591,
        "filename": "26ribridge_pid591.jpg",
        "iconType": 1,
        "latitude": 45.50168,
        "longitude": -122.66093,
        "route": "US26  ",
        "title": "US26 at Ross Island Bridge",
        "videoId": 5430
      },
      "geometry": { "x": -13654552.265928644, "y": 5700849.555783424 }
    },
    {
      "attributes": {
        "cameraId": 119,
        "publishedImageId": 593,
        "filename": "RqI5ramp_pid593.jpg",
        "iconType": 1,
        "latitude": 45.53028,
        "longitude": -122.66607,
        "route": "I-5   ",
        "title": "I-5 at Rose Quarter - Southbound Ramp",
        "videoId": 5463
      },
      "geometry": { "x": -13655124.448111243, "y": 5705393.141766576 }
    },
    {
      "attributes": {
        "cameraId": 120,
        "publishedImageId": 594,
        "filename": "Rqinterstate_pid594.jpg",
        "iconType": 1,
        "latitude": 45.53028,
        "longitude": -122.66607,
        "route": "I-5   ",
        "title": "I-5 at Rose Quarter - Interstate Avenue",
        "videoId": 5464
      },
      "geometry": { "x": -13655124.448111243, "y": 5705393.141766576 }
    },
    {
      "attributes": {
        "cameraId": 124,
        "publishedImageId": 596,
        "filename": "Rqweidler_pid596.jpg",
        "iconType": 1,
        "latitude": 45.53438,
        "longitude": -122.66655,
        "route": "I-5   ",
        "title": "I-5 at Rose Quarter - Weidler",
        "videoId": 0
      },
      "geometry": { "x": -13655177.881466817, "y": 5706044.684312377 }
    },
    {
      "attributes": {
        "cameraId": 123,
        "publishedImageId": 597,
        "filename": "Rqwinning_pid597.jpg",
        "iconType": 1,
        "latitude": 45.53308,
        "longitude": -122.66677,
        "route": "I-5   ",
        "title": "I-5 at Rose Quarter - Winning Way",
        "videoId": 0
      },
      "geometry": { "x": -13655202.371754786, "y": 5705838.0925089 }
    },
    {
      "attributes": {
        "cameraId": 241,
        "publishedImageId": 600,
        "filename": "Arlington_pid600.jpg",
        "iconType": 1,
        "latitude": 45.71963,
        "longitude": -120.20511,
        "route": "I-84  ",
        "title": "I-84 at Arlington",
        "videoId": 0
      },
      "geometry": { "x": -13381171.634086761, "y": 5735533.003473723 }
    },
    {
      "attributes": {
        "cameraId": 213,
        "publishedImageId": 606,
        "filename": "BlyMtn_pid606.jpg",
        "iconType": 1,
        "latitude": 42.35376,
        "longitude": -121.39835,
        "route": "ORE140",
        "title": "ORE140 at Bly Mtn",
        "videoId": 0
      },
      "geometry": { "x": -13514002.503262437, "y": 5214119.162006522 }
    },
    {
      "attributes": {
        "cameraId": 270,
        "publishedImageId": 607,
        "filename": "BlackButte_pid607.jpg",
        "iconType": 1,
        "latitude": 41.38202,
        "longitude": -122.37478,
        "route": "I-5   ",
        "title": "I-5 California at Black Butte",
        "videoId": 0
      },
      "geometry": { "x": -13622698.193642584, "y": 5068853.875613346 }
    },
    {
      "attributes": {
        "cameraId": 274,
        "publishedImageId": 608,
        "filename": "CedarPass_pid608.jpg",
        "iconType": 1,
        "latitude": 41.56056,
        "longitude": -120.28722,
        "route": "US299 ",
        "title": "SR 299 California at Cedar Pass",
        "videoId": 0
      },
      "geometry": { "x": -13390312.077474527, "y": 5095379.07238271 }
    },
    {
      "attributes": {
        "cameraId": 273,
        "publishedImageId": 609,
        "filename": "Dorris_pid609.jpg",
        "iconType": 1,
        "latitude": 41.9845,
        "longitude": -121.90567,
        "route": "US97  ",
        "title": "US97 California at Dorris",
        "videoId": 0
      },
      "geometry": { "x": -13570477.107323821, "y": 5158657.901206742 }
    },
    {
      "attributes": {
        "cameraId": 271,
        "publishedImageId": 610,
        "filename": "GrassLake_pid610.jpg",
        "iconType": 1,
        "latitude": 41.63326,
        "longitude": -122.19296,
        "route": "US97  ",
        "title": "US97 California at Grass Lake",
        "videoId": 0
      },
      "geometry": { "x": -13602458.08382937, "y": 5106200.898496691 }
    },
    {
      "attributes": {
        "cameraId": 265,
        "publishedImageId": 611,
        "filename": "Hilt_pid611.jpg",
        "iconType": 1,
        "latitude": 41.99306,
        "longitude": -122.60975,
        "route": "I-5   ",
        "title": "I-5 California at Hilt",
        "videoId": 0
      },
      "geometry": { "x": -13648854.93439064, "y": 5159939.921671438 }
    },
    {
      "attributes": {
        "cameraId": 272,
        "publishedImageId": 612,
        "filename": "MtHebron_pid612.jpg",
        "iconType": 1,
        "latitude": 41.75748,
        "longitude": -122.06532,
        "route": "US97  ",
        "title": "US97 California  at Mt. Hebron",
        "videoId": 0
      },
      "geometry": { "x": -13588249.264026492, "y": 5124720.067486198 }
    },
    {
      "attributes": {
        "cameraId": 264,
        "publishedImageId": 613,
        "filename": "NorthHilt_pid613.jpg",
        "iconType": 1,
        "latitude": 41.99627,
        "longitude": -122.61042,
        "route": "I-5   ",
        "title": "I-5 California at North Hilt",
        "videoId": 0
      },
      "geometry": { "x": -13648929.51844946, "y": 5160420.723795677 }
    },
    {
      "attributes": {
        "cameraId": 269,
        "publishedImageId": 614,
        "filename": "NorthWeed_pid614.jpg",
        "iconType": 1,
        "latitude": 41.42947,
        "longitude": -122.40259,
        "route": "I-5   ",
        "title": "I-5 California at North Weed",
        "videoId": 0
      },
      "geometry": { "x": -13625793.988681115, "y": 5075896.268985359 }
    },
    {
      "attributes": {
        "cameraId": 267,
        "publishedImageId": 615,
        "filename": "WaltersRd_pid615.jpg",
        "iconType": 1,
        "latitude": 41.68597,
        "longitude": -122.63559,
        "route": "I-5   ",
        "title": "I-5 California at South Yreka",
        "videoId": 0
      },
      "geometry": { "x": -13651731.430032335, "y": 5114054.729065795 }
    },
    {
      "attributes": {
        "cameraId": 268,
        "publishedImageId": 616,
        "filename": "WeedAirport_pid616.jpg",
        "iconType": 1,
        "latitude": 41.47444,
        "longitude": -122.45306,
        "route": "I-5   ",
        "title": "I-5 California at Weed Airport",
        "videoId": 0
      },
      "geometry": { "x": -13631412.283380666, "y": 5082575.340016222 }
    },
    {
      "attributes": {
        "cameraId": 266,
        "publishedImageId": 617,
        "filename": "Yreka_pid617.jpg",
        "iconType": 1,
        "latitude": 41.73194,
        "longitude": -122.63271,
        "route": "I-5   ",
        "title": "I-5 California at Yreka",
        "videoId": 0
      },
      "geometry": { "x": -13651410.829898897, "y": 5120909.548759394 }
    },
    {
      "attributes": {
        "cameraId": 254,
        "publishedImageId": 618,
        "filename": "CapeCove_pid618.jpg",
        "iconType": 1,
        "latitude": 44.12833,
        "longitude": -124.12305,
        "route": "US101 ",
        "title": "US101 at Cape Cove",
        "videoId": 0
      },
      "geometry": { "x": -13817314.719784651, "y": 5485323.070501267 }
    },
    {
      "attributes": {
        "cameraId": 205,
        "publishedImageId": 620,
        "filename": "CascadeLocksWB_pid620.jpg",
        "iconType": 1,
        "latitude": 45.66931,
        "longitude": -121.88484,
        "route": "I-84  ",
        "title": "I-84 at Cascade Locks",
        "videoId": 0
      },
      "geometry": { "x": -13568158.32233092, "y": 5727513.357413128 }
    },
    {
      "attributes": {
        "cameraId": 237,
        "publishedImageId": 621,
        "filename": "Chemult_pid621.jpg",
        "iconType": 1,
        "latitude": 43.2235,
        "longitude": -121.78639,
        "route": "US97  ",
        "title": "US97 at Chemult",
        "videoId": 0
      },
      "geometry": { "x": -13557198.918463846, "y": 5346052.935414801 }
    },
    {
      "attributes": {
        "cameraId": 221,
        "publishedImageId": 622,
        "filename": "Detroit1_pid622.jpg",
        "iconType": 1,
        "latitude": 44.72616,
        "longitude": -122.13563,
        "route": "ORE22 ",
        "title": "ORE22 at Detroit",
        "videoId": 0
      },
      "geometry": { "x": -13596076.137423077, "y": 5578513.513067385 }
    },
    {
      "attributes": {
        "cameraId": 208,
        "publishedImageId": 623,
        "filename": "DeadmanP-CabbageHill_pid623.jpg",
        "iconType": 1,
        "latitude": 45.60035,
        "longitude": -118.50341,
        "route": "I-84  ",
        "title": "I-84 at Cabbage Hill - Deadman Pass",
        "videoId": 0
      },
      "geometry": { "x": -13191739.25663022, "y": 5716534.701232155 }
    },
    {
      "attributes": {
        "cameraId": 203,
        "publishedImageId": 624,
        "filename": "GovernmentCamp_pid624.jpg",
        "iconType": 1,
        "latitude": 45.30123,
        "longitude": -121.74129,
        "route": "US26  ",
        "title": "US26 at Government Camp",
        "videoId": 0
      },
      "geometry": { "x": -13552178.40942977, "y": 5669069.303227802 }
    },
    {
      "attributes": {
        "cameraId": 179,
        "publishedImageId": 625,
        "filename": "I-5atExit6_pid625.jpg",
        "iconType": 1,
        "latitude": 42.07246,
        "longitude": -122.60612,
        "route": "I-5   ",
        "title": "I-5 at Exit 6 Near Siskiyou Summit",
        "videoId": 0
      },
      "geometry": { "x": -13648450.844639115, "y": 5171839.7873784555 }
    },
    {
      "attributes": {
        "cameraId": 198,
        "publishedImageId": 630,
        "filename": "LaPine_pid630.jpg",
        "iconType": 1,
        "latitude": 43.67448,
        "longitude": -121.50037,
        "route": "US97  ",
        "title": "US97 at LaPine",
        "videoId": 0
      },
      "geometry": { "x": -13525359.31771159, "y": 5415204.630467917 }
    },
    {
      "attributes": {
        "cameraId": 197,
        "publishedImageId": 631,
        "filename": "LavaButte_pid631.jpg",
        "iconType": 1,
        "latitude": 43.90677,
        "longitude": -121.35743,
        "route": "US97  ",
        "title": "US97 at Lava Butte",
        "videoId": 0
      },
      "geometry": { "x": -13509447.309699811, "y": 5451025.942434743 }
    },
    {
      "attributes": {
        "cameraId": 240,
        "publishedImageId": 632,
        "filename": "LePagePark-JohnDay_pid632.jpg",
        "iconType": 1,
        "latitude": 45.72919,
        "longitude": -120.65276,
        "route": "I-84  ",
        "title": "I-84 at LePage Park -  John Day River",
        "videoId": 0
      },
      "geometry": { "x": -13431003.804133435, "y": 5737057.424926008 }
    },
    {
      "attributes": {
        "cameraId": 171,
        "publishedImageId": 633,
        "filename": "LincolnCityLogan_pid633.jpg",
        "iconType": 1,
        "latitude": 44.99569,
        "longitude": -124.00531,
        "route": "US101 ",
        "title": "US101 at Lincoln City -  Logan Rd",
        "videoId": 0
      },
      "geometry": { "x": -13804207.962940473, "y": 5620842.989638186 }
    },
    {
      "attributes": {
        "cameraId": 172,
        "publishedImageId": 634,
        "filename": "LincolnCityUS101_pid634.jpg",
        "iconType": 1,
        "latitude": 44.99569,
        "longitude": -124.00531,
        "route": "US101 ",
        "title": "US101 at Lincoln City",
        "videoId": 0
      },
      "geometry": { "x": -13804207.962940473, "y": 5620842.989638186 }
    },
    {
      "attributes": {
        "cameraId": 242,
        "publishedImageId": 635,
        "filename": "LorenzenRoad_pid635.jpg",
        "iconType": 1,
        "latitude": 45.71822,
        "longitude": -119.01476,
        "route": "I-84  ",
        "title": "I-84 at Lorenzen Road",
        "videoId": 0
      },
      "geometry": { "x": -13248662.478239435, "y": 5735308.189328069 }
    },
    {
      "attributes": {
        "cameraId": 279,
        "publishedImageId": 643,
        "filename": "MurphyHill_pid643.jpg",
        "iconType": 1,
        "latitude": 45.07213,
        "longitude": -123.71508,
        "route": "OR18  ",
        "title": "OR18 at Murphy Hill",
        "videoId": 0
      },
      "geometry": { "x": -13771899.70713204, "y": 5632884.034363481 }
    },
    {
      "attributes": {
        "cameraId": 263,
        "publishedImageId": 649,
        "filename": "RedmondAirport_pid649.jpg",
        "iconType": 1,
        "latitude": 44.25257,
        "longitude": -121.16359,
        "route": "US97  ",
        "title": "Redmond at Roberts Field",
        "videoId": 0
      },
      "geometry": { "x": -13487869.139607448, "y": 5504611.52855713 }
    },
    {
      "attributes": {
        "cameraId": 231,
        "publishedImageId": 651,
        "filename": "HayesvilleInterch-S_pid651.jpg",
        "iconType": 1,
        "latitude": 44.98434,
        "longitude": -122.99357,
        "route": "I-5   ",
        "title": "I-5 Salem at Exit 258",
        "videoId": 0
      },
      "geometry": { "x": -13691581.581340966, "y": 5619056.475733562 }
    },
    {
      "attributes": {
        "cameraId": 282,
        "publishedImageId": 652,
        "filename": "Seaside_pid652.jpg",
        "iconType": 1,
        "latitude": 45.96512,
        "longitude": -123.92425,
        "route": "US101 ",
        "title": "US101 at Seaside",
        "videoId": 0
      },
      "geometry": { "x": -13795184.405018027, "y": 5774761.435744237 }
    },
    {
      "attributes": {
        "cameraId": 236,
        "publishedImageId": 653,
        "filename": "Sisters_pid653.jpg",
        "iconType": 1,
        "latitude": 44.29501,
        "longitude": -121.55902,
        "route": "US20  ",
        "title": "US20 at Sisters",
        "videoId": 0
      },
      "geometry": { "x": -13531888.205845706, "y": 5511209.739922187 }
    },
    {
      "attributes": {
        "cameraId": 211,
        "publishedImageId": 654,
        "filename": "Snake River_pid654.JPG",
        "iconType": 1,
        "latitude": 44.00876,
        "longitude": -116.94171,
        "route": "I-84  ",
        "title": "I-84 at Snake River",
        "videoId": 0
      },
      "geometry": { "x": -13017891.607882563, "y": 5466797.9128277935 }
    },
    {
      "attributes": {
        "cameraId": 169,
        "publishedImageId": 656,
        "filename": "ValleyJunction_pid656.jpg",
        "iconType": 1,
        "latitude": 45.06205,
        "longitude": -123.56799,
        "route": "ORE18 ",
        "title": "ORE18 at ORE22  - Valley Junction",
        "videoId": 0
      },
      "geometry": { "x": -13755525.723233535, "y": 5631295.283235278 }
    },
    {
      "attributes": {
        "cameraId": 210,
        "publishedImageId": 657,
        "filename": "Weatherby_pid657.jpg",
        "iconType": 1,
        "latitude": 44.49611,
        "longitude": -117.3675,
        "route": "I-84  ",
        "title": "I-84 at Weatherby Rest Area",
        "videoId": 0
      },
      "geometry": { "x": -13065290.333860835, "y": 5542540.097444546 }
    },
    {
      "attributes": {
        "cameraId": 207,
        "publishedImageId": 658,
        "filename": "WillamettePass_pid658.jpg",
        "iconType": 1,
        "latitude": 43.59702,
        "longitude": -122.03383,
        "route": "OR58  ",
        "title": "OR58 at Willamette Pass",
        "videoId": 0
      },
      "geometry": { "x": -13584743.8132619, "y": 5403290.417375694 }
    },
    {
      "attributes": {
        "cameraId": 286,
        "publishedImageId": 660,
        "filename": "i20599E_pid660.jpg",
        "iconType": 1,
        "latitude": 45.36762,
        "longitude": -122.59521,
        "route": "I-205 ",
        "title": "I-205 at 99E",
        "videoId": 5909
      },
      "geometry": { "x": -13647236.34899473, "y": 5679582.594644723 }
    },
    {
      "attributes": {
        "cameraId": 287,
        "publishedImageId": 661,
        "filename": "i205OR43_pid661.jpg",
        "iconType": 1,
        "latitude": 45.36192,
        "longitude": -122.61184,
        "route": "I-205 ",
        "title": "I-205 at ORE43",
        "videoId": 5911
      },
      "geometry": { "x": -13649087.592126363, "y": 5678679.478405455 }
    },
    {
      "attributes": {
        "cameraId": 288,
        "publishedImageId": 662,
        "filename": "i205VWpt_pid662.jpg",
        "iconType": 1,
        "latitude": 45.35166,
        "longitude": -122.62824,
        "route": "I-205 ",
        "title": "I-205 at Willamette Falls Viewpoint",
        "videoId": 5914
      },
      "geometry": { "x": -13650913.23177512, "y": 5677054.098433865 }
    },
    {
      "attributes": {
        "cameraId": 289,
        "publishedImageId": 663,
        "filename": "i20510th_pid663.jpg",
        "iconType": 1,
        "latitude": 45.3472,
        "longitude": -122.65082,
        "route": "I-205 ",
        "title": "I-205 at 10th West Linn",
        "videoId": 5908
      },
      "geometry": { "x": -13653426.825876882, "y": 5676347.6411280995 }
    },
    {
      "attributes": {
        "cameraId": 290,
        "publishedImageId": 664,
        "filename": "i205blnk_pid664.jpg",
        "iconType": 1,
        "latitude": 45.35742,
        "longitude": -122.66501,
        "route": "I-205 ",
        "title": "I-205 at Blankenship Road",
        "videoId": 5910
      },
      "geometry": { "x": -13655006.449451018, "y": 5677966.556169958 }
    },
    {
      "attributes": {
        "cameraId": 291,
        "publishedImageId": 665,
        "filename": "i205staf_pid665.jpg",
        "iconType": 1,
        "latitude": 45.36999,
        "longitude": -122.70643,
        "route": "I-205 ",
        "title": "I-205 at Stafford Road",
        "videoId": 5913
      },
      "geometry": { "x": -13659617.302759032, "y": 5679958.127656521 }
    },
    {
      "attributes": {
        "cameraId": 292,
        "publishedImageId": 666,
        "filename": "i205pros_pid666.jpg",
        "iconType": 1,
        "latitude": 45.37297,
        "longitude": -122.72952,
        "route": "I-205 ",
        "title": "I-205 at Prosperity Park Road",
        "videoId": 5912
      },
      "geometry": { "x": -13662187.669801091, "y": 5680430.339176993 }
    },
    {
      "attributes": {
        "cameraId": 294,
        "publishedImageId": 675,
        "filename": "26Sylvan_pid675.jpg",
        "iconType": 1,
        "latitude": 45.50845,
        "longitude": -122.73595,
        "route": "US26  ",
        "title": "US26 at Sylvan Interchange - Skyline",
        "videoId": 5437
      },
      "geometry": { "x": -13662903.454126795, "y": 5701924.874367777 }
    },
    {
      "attributes": {
        "cameraId": 285,
        "publishedImageId": 676,
        "filename": "RoseburgSouthMP120 SB_pid676.JPG",
        "iconType": 1,
        "latitude": 43.16664,
        "longitude": -123.3656,
        "route": "I-5   ",
        "title": "I-5 at Roseburg - Milepost 120",
        "videoId": 0
      },
      "geometry": { "x": -13732995.771495021, "y": 5337370.6473884545 }
    },
    {
      "attributes": {
        "cameraId": 296,
        "publishedImageId": 708,
        "filename": "Green Springs Interchange_pid708.jpg",
        "iconType": 1,
        "latitude": 42.19257,
        "longitude": -121.79871,
        "route": "US97  ",
        "title": "US97 at Green Springs Interchange",
        "videoId": 0
      },
      "geometry": { "x": -13558570.37459023, "y": 5189869.285730692 }
    },
    {
      "attributes": {
        "cameraId": 251,
        "publishedImageId": 743,
        "filename": "LakeoftheWoods_pid743.jpg",
        "iconType": 1,
        "latitude": 42.39592,
        "longitude": -122.205,
        "route": "ORE140",
        "title": "ORE140 at Lake of the Woods",
        "videoId": 0
      },
      "geometry": { "x": -13603798.370498333, "y": 5220472.084233145 }
    },
    {
      "attributes": {
        "cameraId": 302,
        "publishedImageId": 761,
        "filename": "I-205_Mill Plain_pid761.jpg",
        "iconType": 1,
        "latitude": 45.62119,
        "longitude": -122.55998,
        "route": "I-205 ",
        "title": "I-205 Washington - Vancouver at Mill Plain",
        "videoId": 0
      },
      "geometry": { "x": -13643314.563334629, "y": 5719851.072871755 }
    },
    {
      "attributes": {
        "cameraId": 303,
        "publishedImageId": 762,
        "filename": "I-5_134th_pid762.jpg",
        "iconType": 1,
        "latitude": 45.71831,
        "longitude": -122.65543,
        "route": "I-5   ",
        "title": "I-5 Washington - Vancouver at 134th",
        "videoId": 0
      },
      "geometry": { "x": -13653940.008729368, "y": 5735322.5389976585 }
    },
    {
      "attributes": {
        "cameraId": 306,
        "publishedImageId": 767,
        "filename": "I-5_29th_pid767.jpg",
        "iconType": 1,
        "latitude": 45.64217,
        "longitude": -122.66222,
        "route": "I-5   ",
        "title": "I-5 Washington - Vancouver at 29th",
        "videoId": 0
      },
      "geometry": { "x": -13654695.86807175, "y": 5723190.968779823 }
    },
    {
      "attributes": {
        "cameraId": 307,
        "publishedImageId": 768,
        "filename": "I-5_78th_pid768.jpg",
        "iconType": 1,
        "latitude": 45.67667,
        "longitude": -122.66481,
        "route": "I-5   ",
        "title": "I-5 Washington - Vancouver at 78th",
        "videoId": 0
      },
      "geometry": { "x": -13654984.185552865, "y": 5728685.891811931 }
    },
    {
      "attributes": {
        "cameraId": 308,
        "publishedImageId": 769,
        "filename": "I-5_99st_pid769.jpg",
        "iconType": 1,
        "latitude": 45.69317,
        "longitude": -122.66187,
        "route": "I-5   ",
        "title": "I-5 Washington - Vancouver at 99th",
        "videoId": 0
      },
      "geometry": { "x": -13654656.906249975, "y": 5731315.096045474 }
    },
    {
      "attributes": {
        "cameraId": 309,
        "publishedImageId": 770,
        "filename": "I-5_Main_pid770.jpg",
        "iconType": 1,
        "latitude": 45.65962,
        "longitude": -122.66588,
        "route": "I-5   ",
        "title": "I-5 Washington - Vancouver  at Main Street",
        "videoId": 0
      },
      "geometry": { "x": -13655103.297407995, "y": 5725969.861758097 }
    },
    {
      "attributes": {
        "cameraId": 310,
        "publishedImageId": 771,
        "filename": "I-5_Millplain_pid771.jpg",
        "iconType": 1,
        "latitude": 45.63152,
        "longitude": -122.66535,
        "route": "I-5   ",
        "title": "I-5 Washington - Vancouver at Mill Plain",
        "videoId": 0
      },
      "geometry": { "x": -13655044.298077883, "y": 5721495.393498702 }
    },
    {
      "attributes": {
        "cameraId": 311,
        "publishedImageId": 772,
        "filename": "I-5_SR14_pid772.jpg",
        "iconType": 1,
        "latitude": 45.62452,
        "longitude": -122.67057,
        "route": "I-5   ",
        "title": "I-5  Washington - Vancouver at SR-14",
        "videoId": 0
      },
      "geometry": { "x": -13655625.385819742, "y": 5720381.106348992 }
    },
    {
      "attributes": {
        "cameraId": 312,
        "publishedImageId": 773,
        "filename": "SR14_i-205e_pid773.jpg",
        "iconType": 1,
        "latitude": 45.6022,
        "longitude": -122.54632,
        "route": "SR-14 ",
        "title": "SR-14 Washington - Vancouver at I-205",
        "videoId": 0
      },
      "geometry": { "x": -13641793.939090604, "y": 5716829.050994389 }
    },
    {
      "attributes": {
        "cameraId": 313,
        "publishedImageId": 774,
        "filename": "SR14_i-205w_pid774.jpg",
        "iconType": 1,
        "latitude": 45.60474,
        "longitude": -122.55723,
        "route": "SR-14 ",
        "title": "SR-14 Washington - Vancouver at I-205",
        "videoId": 0
      },
      "geometry": { "x": -13643008.43473499, "y": 5717233.201074278 }
    },
    {
      "attributes": {
        "cameraId": 314,
        "publishedImageId": 775,
        "filename": "SR500_112_pid775.jpg",
        "iconType": 1,
        "latitude": 45.66206,
        "longitude": -122.5584,
        "route": "SR-500",
        "title": "SR-500 Washington - Vancouver at 112th",
        "videoId": 0
      },
      "geometry": { "x": -13643138.6785392, "y": 5726358.4980368065 }
    },
    {
      "attributes": {
        "cameraId": 315,
        "publishedImageId": 776,
        "filename": "SR500_Thurston_pid776.jpg",
        "iconType": 1,
        "latitude": 45.65451,
        "longitude": -122.58713,
        "route": "SR-500",
        "title": "SR-500 Washington - Vancouver at Thurston",
        "videoId": 0
      },
      "geometry": { "x": -13646336.887509245, "y": 5725156.010323667 }
    },
    {
      "attributes": {
        "cameraId": 320,
        "publishedImageId": 797,
        "filename": "I-5atPerkinsRd_pid797.jpg",
        "iconType": 1,
        "latitude": 45.0275,
        "longitude": -122.9842,
        "route": "I-5   ",
        "title": "I-5 at Perkins Road",
        "videoId": 0
      },
      "geometry": { "x": -13690538.517712378, "y": 5625851.837043164 }
    },
    {
      "attributes": {
        "cameraId": 321,
        "publishedImageId": 798,
        "filename": "I-5atArndtRd_pid798.jpg",
        "iconType": 1,
        "latitude": 45.26025,
        "longitude": -122.78641,
        "route": "I-5   ",
        "title": "I-5 at Arndt Rd",
        "videoId": 0
      },
      "geometry": { "x": -13668520.635631442, "y": 5662585.995670153 }
    },
    {
      "attributes": {
        "cameraId": 326,
        "publishedImageId": 1328,
        "filename": "26CedarHills_pid1328.jpg",
        "iconType": 1,
        "latitude": 45.51447,
        "longitude": -122.7941,
        "route": "US26  ",
        "title": "US26 at Cedar Hills",
        "videoId": 7837
      },
      "geometry": { "x": -13669376.682515522, "y": 5702881.1747184135 }
    },
    {
      "attributes": {
        "cameraId": 327,
        "publishedImageId": 1329,
        "filename": "26_185th_pid1329.jpg",
        "iconType": 1,
        "latitude": 45.54143,
        "longitude": -122.8678,
        "route": "US26  ",
        "title": "US26 at 185th Street",
        "videoId": 7839
      },
      "geometry": { "x": -13677580.928985845, "y": 5707165.130738951 }
    },
    {
      "attributes": {
        "cameraId": 328,
        "publishedImageId": 1330,
        "filename": "26Cornelius_pid1330.jpg",
        "iconType": 1,
        "latitude": 45.55357,
        "longitude": -122.9006,
        "route": "US26  ",
        "title": "US26 at Cornelius Pass",
        "videoId": 7840
      },
      "geometry": { "x": -13681232.208283355, "y": 5709094.8529122 }
    },
    {
      "attributes": {
        "cameraId": 329,
        "publishedImageId": 1331,
        "filename": "26Helvetia_pid1331.jpg",
        "iconType": 1,
        "latitude": 45.56464,
        "longitude": -122.9264,
        "route": "US26  ",
        "title": "US26 at Helvetia",
        "videoId": 7841
      },
      "geometry": { "x": -13684104.25114542, "y": 5710854.855882397 }
    },
    {
      "attributes": {
        "cameraId": 330,
        "publishedImageId": 1332,
        "filename": "26Washington_pid1332.jpg",
        "iconType": 1,
        "latitude": 45.50737,
        "longitude": -122.70953,
        "route": "US26  ",
        "title": "US26 at Washington Park",
        "videoId": 7838
      },
      "geometry": { "x": -13659962.393180444, "y": 5701753.322999192 }
    },
    {
      "attributes": {
        "cameraId": 332,
        "publishedImageId": 1354,
        "filename": "US20atTombstone_pid1354.jpg",
        "iconType": 1,
        "latitude": 44.39548,
        "longitude": -122.14151,
        "route": "US20  ",
        "title": "US20 at Tombstone",
        "videoId": 0
      },
      "geometry": { "x": -13596730.696028852, "y": 5526848.9964667065 }
    },
    {
      "attributes": {
        "cameraId": 333,
        "publishedImageId": 1355,
        "filename": "LakeCreek_pid1355.JPG",
        "iconType": 1,
        "latitude": 44.35911,
        "longitude": -123.06086,
        "route": "I-5   ",
        "title": "I-5 at Lake Creek - South of ORE228",
        "videoId": 0
      },
      "geometry": { "x": -13699072.269875401, "y": 5521184.511353463 }
    },
    {
      "attributes": {
        "cameraId": 334,
        "publishedImageId": 1362,
        "filename": "Paulina_pid1362.jpg",
        "iconType": 1,
        "latitude": 44.13108,
        "longitude": -119.96998,
        "route": "ORE380",
        "title": "ORE380 at Paulina",
        "videoId": 0
      },
      "geometry": { "x": -13354997.082220185, "y": 5485749.572806185 }
    },
    {
      "attributes": {
        "cameraId": 349,
        "publishedImageId": 1381,
        "filename": "Brightwood2_pid1381.jpg",
        "iconType": 1,
        "latitude": 45.3761,
        "longitude": -122.03533,
        "route": "US26  ",
        "title": "US26 at Brightwood",
        "videoId": 0
      },
      "geometry": { "x": -13584910.792498067, "y": 5680926.346526645 }
    },
    {
      "attributes": {
        "cameraId": 356,
        "publishedImageId": 1489,
        "filename": "NorthAlbany_pid1489.jpg",
        "iconType": 1,
        "latitude": 44.68103,
        "longitude": -123.05409,
        "route": "I-5   ",
        "title": "I-5 at North Albany",
        "videoId": 0
      },
      "geometry": { "x": -13698318.636922836, "y": 5571445.189084952 }
    },
    {
      "attributes": {
        "cameraId": 359,
        "publishedImageId": 1496,
        "filename": "I-5atKueblerRdSouthSalem_pid1496.jpg",
        "iconType": 1,
        "latitude": 44.89029,
        "longitude": -122.99555,
        "route": "I-5   ",
        "title": "I-5 Salem at Kuebler Blvd",
        "videoId": 0
      },
      "geometry": { "x": -13691801.993932705, "y": 5604266.395499812 }
    },
    {
      "attributes": {
        "cameraId": 360,
        "publishedImageId": 1502,
        "filename": "Frenchglen_pid1502.jpg",
        "iconType": 1,
        "latitude": 42.82738,
        "longitude": -118.9148,
        "route": "ORE205",
        "title": "ORE205 at Frenchglen",
        "videoId": 0
      },
      "geometry": { "x": -13237534.98194129, "y": 5285734.122198191 }
    },
    {
      "attributes": {
        "cameraId": 363,
        "publishedImageId": 1504,
        "filename": "I-5@Goshen_pid1504.jpg",
        "iconType": 1,
        "latitude": 43.97546,
        "longitude": -123.00999,
        "route": "I-5   ",
        "title": "I-5 Near Goshen",
        "videoId": 0
      },
      "geometry": { "x": -13693409.447379536, "y": 5461645.346076221 }
    },
    {
      "attributes": {
        "cameraId": 364,
        "publishedImageId": 1507,
        "filename": "I-5SouthEugene_pid1507.jpg",
        "iconType": 1,
        "latitude": 44.02854,
        "longitude": -123.02985,
        "route": "I-5   ",
        "title": "I-5 at Near ORE 225 McVay Hwy",
        "videoId": 0
      },
      "geometry": { "x": -13695620.252466382, "y": 5469859.876071548 }
    },
    {
      "attributes": {
        "cameraId": 365,
        "publishedImageId": 1511,
        "filename": "ZigZag_pid1511.jpg",
        "iconType": 1,
        "latitude": 45.34479,
        "longitude": -121.948,
        "route": "US26  ",
        "title": "Clackamas County - US26 at ZigZag - Hoodland",
        "videoId": 0
      },
      "geometry": { "x": -13575189.261368444, "y": 5675965.923910493 }
    },
    {
      "attributes": {
        "cameraId": 368,
        "publishedImageId": 1522,
        "filename": "AustinJunction_pid1522.jpg",
        "iconType": 1,
        "latitude": 44.57479,
        "longitude": -118.49194,
        "route": "US26  ",
        "title": "US26 at Austin Junction",
        "videoId": 0
      },
      "geometry": { "x": -13190462.422070998, "y": 5554827.436126209 }
    },
    {
      "attributes": {
        "cameraId": 369,
        "publishedImageId": 1523,
        "filename": "EugeneBeltline_pid1523.jpg",
        "iconType": 1,
        "latitude": 44.09774,
        "longitude": -123.14498,
        "route": "ORE569",
        "title": "ORE569 Beltline Near NW Expressway",
        "videoId": 0
      },
      "geometry": { "x": -13708436.465439628, "y": 5480580.15222936 }
    },
    {
      "attributes": {
        "cameraId": 370,
        "publishedImageId": 1554,
        "filename": "LaddCreekBase_pid1554.jpg",
        "iconType": 1,
        "latitude": 45.23381,
        "longitude": -118.01328,
        "route": "I-84  ",
        "title": "Ladd Canyon at Charles Reynolds",
        "videoId": 0
      },
      "geometry": { "x": -13137178.234615305, "y": 5658405.49571915 }
    },
    {
      "attributes": {
        "cameraId": 375,
        "publishedImageId": 1579,
        "filename": "i84@148th_pid1579.jpg",
        "iconType": 1,
        "latitude": 45.54242,
        "longitude": -122.50928,
        "route": "I-84  ",
        "title": "I-84 at 148th",
        "videoId": 0
      },
      "geometry": { "x": -13637670.665152194, "y": 5707322.481273801 }
    },
    {
      "attributes": {
        "cameraId": 376,
        "publishedImageId": 1580,
        "filename": "i84@181st_pid1580.jpg",
        "iconType": 1,
        "latitude": 45.54129,
        "longitude": -122.47686,
        "route": "I-84  ",
        "title": "I-84 at 181st",
        "videoId": 0
      },
      "geometry": { "x": -13634061.687261181, "y": 5707142.879371779 }
    },
    {
      "attributes": {
        "cameraId": 377,
        "publishedImageId": 1581,
        "filename": "i84@207th_pid1581.jpg",
        "iconType": 1,
        "latitude": 45.53891,
        "longitude": -122.44903,
        "route": "I-84  ",
        "title": "I-84 at Fairview",
        "videoId": 0
      },
      "geometry": { "x": -13630963.665832834, "y": 5706764.614606827 }
    },
    {
      "attributes": {
        "cameraId": 378,
        "publishedImageId": 1582,
        "filename": "i84@223rd_pid1582.jpg",
        "iconType": 1,
        "latitude": 45.54189,
        "longitude": -122.43399,
        "route": "I-84  ",
        "title": "I-84 at 223rd",
        "videoId": 0
      },
      "geometry": { "x": -13629289.420691534, "y": 5707238.242764066 }
    },
    {
      "attributes": {
        "cameraId": 379,
        "publishedImageId": 1583,
        "filename": "i84@257th_pid1583.JPG",
        "iconType": 1,
        "latitude": 45.54487,
        "longitude": -122.39041,
        "route": "I-84  ",
        "title": "I-84 at 257th",
        "videoId": 0
      },
      "geometry": { "x": -13624438.117283443, "y": 5707711.896026184 }
    },
    {
      "attributes": {
        "cameraId": 381,
        "publishedImageId": 1597,
        "filename": "Basque_pid1597.jpg",
        "iconType": 1,
        "latitude": 42.41121,
        "longitude": -117.86204,
        "route": "US95  ",
        "title": "US95 at Basque Station",
        "videoId": 0
      },
      "geometry": { "x": -13120342.274830073, "y": 5222777.12781124 }
    },
    {
      "attributes": {
        "cameraId": 382,
        "publishedImageId": 1598,
        "filename": "JordanValley_pid1598.jpg",
        "iconType": 1,
        "latitude": 42.9797,
        "longitude": -117.05336,
        "route": "US95  ",
        "title": "US95 at Jordan Valley",
        "videoId": 0
      },
      "geometry": { "x": -13030320.429027902, "y": 5308882.489469465 }
    },
    {
      "attributes": {
        "cameraId": 387,
        "publishedImageId": 1612,
        "filename": "I-5 SB at I-105_pid1612.jpg",
        "iconType": 1,
        "latitude": 44.06378,
        "longitude": -123.04974,
        "route": "I-5   ",
        "title": "I-5 at I-105",
        "videoId": 0
      },
      "geometry": { "x": -13697834.397137954, "y": 5475317.595361545 }
    },
    {
      "attributes": {
        "cameraId": 388,
        "publishedImageId": 1613,
        "filename": "ORE569WBatDeltaHwy_pid1613.jpg",
        "iconType": 1,
        "latitude": 44.09182,
        "longitude": -123.09888,
        "route": "ORE569",
        "title": "ORE569 Beltline at Delta Hwy",
        "videoId": 0
      },
      "geometry": { "x": -13703304.636914772, "y": 5479662.551504601 }
    },
    {
      "attributes": {
        "cameraId": 389,
        "publishedImageId": 1637,
        "filename": "I-5atN.MountainAve_pid1637.jpg",
        "iconType": 1,
        "latitude": 42.21103,
        "longitude": -122.70034,
        "route": "I-5   ",
        "title": "I-5 at Ashland -  North Mountain Ave",
        "videoId": 0
      },
      "geometry": { "x": -13658939.367060197, "y": 5192643.318686525 }
    },
    {
      "attributes": {
        "cameraId": 394,
        "publishedImageId": 1652,
        "filename": "Elkton_pid1652.JPG",
        "iconType": 1,
        "latitude": 43.63467,
        "longitude": -123.56367,
        "route": "ORE38 ",
        "title": "ORE38 at Elkton",
        "videoId": 0
      },
      "geometry": { "x": -13755044.823033377, "y": 5409079.489655528 }
    },
    {
      "attributes": {
        "cameraId": 395,
        "publishedImageId": 1655,
        "filename": "Lees Camp_pid1655.JPG",
        "iconType": 1,
        "latitude": 45.58953,
        "longitude": -123.53511,
        "route": "OR6   ",
        "title": "OR6 at Lees Camp",
        "videoId": 0
      },
      "geometry": { "x": -13751865.538376763, "y": 5714813.347236282 }
    },
    {
      "attributes": {
        "cameraId": 397,
        "publishedImageId": 1661,
        "filename": "I-84 EB at Rye Valley_pid1661.JPG",
        "iconType": 1,
        "latitude": 44.44522,
        "longitude": -117.32564,
        "route": "I-84  ",
        "title": "I-84 at Rye Valley Interchange",
        "videoId": 0
      },
      "geometry": { "x": -13060630.499976875, "y": 5534601.509622005 }
    },
    {
      "attributes": {
        "cameraId": 398,
        "publishedImageId": 1662,
        "filename": "I-84 At Plano Road_pid1662.JPG",
        "iconType": 1,
        "latitude": 44.54953,
        "longitude": -117.42147,
        "route": "I-84  ",
        "title": "I-84 at Plano Road Interchange",
        "videoId": 0
      },
      "geometry": { "x": -13071298.24677811, "y": 5550880.809616733 }
    },
    {
      "attributes": {
        "cameraId": 399,
        "publishedImageId": 1669,
        "filename": "Siskiyou I-5 SB at Exit 1_pid1669.JPG",
        "iconType": 1,
        "latitude": 42.01611,
        "longitude": -122.61294,
        "route": "I-5   ",
        "title": "I-5 at Siskiyou Exit 1",
        "videoId": 0
      },
      "geometry": { "x": -13649210.04356622, "y": 5163392.948758577 }
    },
    {
      "attributes": {
        "cameraId": 400,
        "publishedImageId": 1672,
        "filename": "ORE569 at Coburg Rd_pid1672.JPG",
        "iconType": 1,
        "latitude": 44.08781,
        "longitude": -123.06726,
        "route": "ORE569",
        "title": "ORE569 Beltline at Coburg Rd.",
        "videoId": 0
      },
      "geometry": { "x": -13699784.71461638, "y": 5479041.053192653 }
    },
    {
      "attributes": {
        "cameraId": 401,
        "publishedImageId": 1675,
        "filename": "US20 at Santiam Jct_pid1675.JPG",
        "iconType": 1,
        "latitude": 44.43628,
        "longitude": -121.93815,
        "route": "US20  ",
        "title": "US20 at Santiam Jct",
        "videoId": 0
      },
      "geometry": { "x": -13574092.764384282, "y": 5533207.628305079 }
    },
    {
      "attributes": {
        "cameraId": 402,
        "publishedImageId": 1682,
        "filename": "Siskiyou I-5 NB at Exit 1_pid1682.JPG",
        "iconType": 1,
        "latitude": 42.01611,
        "longitude": -122.61294,
        "route": "I-5   ",
        "title": "I-5 at Siskiyou Exit 1",
        "videoId": 0
      },
      "geometry": { "x": -13649210.04356622, "y": 5163392.948758577 }
    },
    {
      "attributes": {
        "cameraId": 403,
        "publishedImageId": 1685,
        "filename": "Siskiyou I-5 SB at MP.2_pid1685.JPG",
        "iconType": 1,
        "latitude": 42.00549,
        "longitude": -122.61518,
        "route": "I-5   ",
        "title": "I-5 at Siskiyou MP.2",
        "videoId": 0
      },
      "geometry": { "x": -13649459.399225561, "y": 5161801.854184846 }
    },
    {
      "attributes": {
        "cameraId": 404,
        "publishedImageId": 1688,
        "filename": "Siskiyou I-5 NB at MP.2_pid1688.JPG",
        "iconType": 1,
        "latitude": 42.00549,
        "longitude": -122.61518,
        "route": "I-5   ",
        "title": "I-5 at Siskiyou MP.2",
        "videoId": 0
      },
      "geometry": { "x": -13649459.399225561, "y": 5161801.854184846 }
    },
    {
      "attributes": {
        "cameraId": 405,
        "publishedImageId": 1726,
        "filename": "US97 at Spring Creek (Top of Grade)_pid1726.JPG",
        "iconType": 1,
        "latitude": 42.6795,
        "longitude": -121.85625,
        "route": "US97  ",
        "title": "US97 at Spring Creek (Top of Grade)",
        "videoId": 0
      },
      "geometry": { "x": -13564975.698089582, "y": 5263315.018631296 }
    },
    {
      "attributes": {
        "cameraId": 406,
        "publishedImageId": 1729,
        "filename": "US97 at MP214 Near ORE138 Jct_pid1729.JPG",
        "iconType": 1,
        "latitude": 43.06591,
        "longitude": -121.82514,
        "route": "US97  ",
        "title": "US97 Near ORE138 Jct - Milepoint 214",
        "videoId": 0
      },
      "geometry": { "x": -13561512.548731485, "y": 5322009.407171182 }
    },
    {
      "attributes": {
        "cameraId": 407,
        "publishedImageId": 1732,
        "filename": "Delta Hwy_pid1732.JPG",
        "iconType": 1,
        "latitude": 44.07491,
        "longitude": -123.10485,
        "route": "CITY  ",
        "title": "Eugene - Delta Hwy Near Valley River",
        "videoId": 0
      },
      "geometry": { "x": -13703969.214274715, "y": 5477042.0052062515 }
    },
    {
      "attributes": {
        "cameraId": 408,
        "publishedImageId": 1742,
        "filename": "US26 Near Warm Springs_pid1742.JPG",
        "iconType": 1,
        "latitude": 44.79526,
        "longitude": -121.33056,
        "route": "US26  ",
        "title": "US26 Near Warm Springs",
        "videoId": 0
      },
      "geometry": { "x": -13506456.154982615, "y": 5589346.746507316 }
    },
    {
      "attributes": {
        "cameraId": 412,
        "publishedImageId": 1754,
        "filename": "Delta Hwy at Valley River_pid1754.JPG",
        "iconType": 1,
        "latitude": 44.07646,
        "longitude": -123.10578,
        "route": "CITY  ",
        "title": "Eugene - Delta Hwy Near Valley River",
        "videoId": 0
      },
      "geometry": { "x": -13704072.74140114, "y": 5477282.17785664 }
    },
    {
      "attributes": {
        "cameraId": 419,
        "publishedImageId": 1773,
        "filename": "US26 at Frog Lake VMS_pid1773.JPG",
        "iconType": 1,
        "latitude": 45.22876,
        "longitude": -121.70028,
        "route": "US26  ",
        "title": "US26 at Frog Lake",
        "videoId": 0
      },
      "geometry": { "x": -13547613.197112973, "y": 5657607.247803526 }
    },
    {
      "attributes": {
        "cameraId": 418,
        "publishedImageId": 1776,
        "filename": "US26 at Govt Camp Lp Rd_pid1776.JPG",
        "iconType": 1,
        "latitude": 45.30263,
        "longitude": -121.76868,
        "route": "US26  ",
        "title": "US26 at Govt Camp Lp Rd",
        "videoId": 0
      },
      "geometry": { "x": -13555227.450282173, "y": 5669290.875257991 }
    },
    {
      "attributes": {
        "cameraId": 420,
        "publishedImageId": 1786,
        "filename": "26Quartzcrk_pid1786.JPG",
        "iconType": 1,
        "latitude": 45.84196,
        "longitude": -123.51895,
        "route": "US26  ",
        "title": "US26 at Quartz Creek",
        "videoId": 0
      },
      "geometry": { "x": -13750066.615405796, "y": 5755059.267586116 }
    },
    {
      "attributes": {
        "cameraId": 411,
        "publishedImageId": 1804,
        "filename": "Hwy 101 at Brookings NB_pid1804.JPG",
        "iconType": 1,
        "latitude": 42.05506,
        "longitude": -124.27359,
        "route": "US101 ",
        "title": "US101 at Brookings",
        "videoId": 0
      },
      "geometry": { "x": -13834072.755926337, "y": 5169230.735881257 }
    },
    {
      "attributes": {
        "cameraId": 410,
        "publishedImageId": 1807,
        "filename": "Hwy 101 at Brookings SB_pid1807.JPG",
        "iconType": 1,
        "latitude": 42.05506,
        "longitude": -124.27359,
        "route": "US101 ",
        "title": "US101 at Brookings",
        "videoId": 0
      },
      "geometry": { "x": -13834072.755926337, "y": 5169230.735881257 }
    },
    {
      "attributes": {
        "cameraId": 426,
        "publishedImageId": 1814,
        "filename": "MyrtleCreekN_pid1814.JPG",
        "iconType": 1,
        "latitude": 43.02425,
        "longitude": -123.29748,
        "route": "I-5   ",
        "title": "I-5 at Myrtle Creek",
        "videoId": 0
      },
      "geometry": { "x": -13725412.68778324, "y": 5315663.672178778 }
    },
    {
      "attributes": {
        "cameraId": 427,
        "publishedImageId": 1819,
        "filename": "MyrtleCreekS_pid1819.JPG",
        "iconType": 1,
        "latitude": 43.02425,
        "longitude": -123.29748,
        "route": "I-5   ",
        "title": "I-5 at Myrtle Creek",
        "videoId": 0
      },
      "geometry": { "x": -13725412.68778324, "y": 5315663.672178778 }
    },
    {
      "attributes": {
        "cameraId": 428,
        "publishedImageId": 1860,
        "filename": "Hood River Exit 63_pid1860.JPG",
        "iconType": 1,
        "latitude": 45.71048,
        "longitude": -121.51235,
        "route": "I-84  ",
        "title": "I-84 at Hood River Exit 63",
        "videoId": 0
      },
      "geometry": { "x": -13526692.925211105, "y": 5734074.204196559 }
    },
    {
      "attributes": {
        "cameraId": 429,
        "publishedImageId": 1863,
        "filename": "Hood River Exit 64a_pid1863.JPG",
        "iconType": 1,
        "latitude": 45.71061,
        "longitude": -121.50208,
        "route": "I-84  ",
        "title": "I-84 at Hood River Exit 64 A",
        "videoId": 0
      },
      "geometry": { "x": -13525549.674040818, "y": 5734094.92863396 }
    },
    {
      "attributes": {
        "cameraId": 431,
        "publishedImageId": 1869,
        "filename": "Beltline at River Rd_pid1869.JPG",
        "iconType": 1,
        "latitude": 44.09718,
        "longitude": -123.12807,
        "route": "ORE569",
        "title": "ORE569 Beltline at River Rd.",
        "videoId": 0
      },
      "geometry": { "x": -13706554.052850574, "y": 5480493.348226889 }
    },
    {
      "attributes": {
        "cameraId": 432,
        "publishedImageId": 1872,
        "filename": "I-5 NB at Beltline_pid1872.JPG",
        "iconType": 1,
        "latitude": 44.08392,
        "longitude": -123.04486,
        "route": "I-5   ",
        "title": "I-5 at OR569 Beltline",
        "videoId": 0
      },
      "geometry": { "x": -13697291.158022956, "y": 5478438.193594036 }
    },
    {
      "attributes": {
        "cameraId": 433,
        "publishedImageId": 1875,
        "filename": "US26 EB at Arlie Mitchell Rd._pid1875.JPG",
        "iconType": 1,
        "latitude": 45.33134,
        "longitude": -121.91279,
        "route": "US26  ",
        "title": "US26 at Arlie Mitchell Rd.",
        "videoId": 0
      },
      "geometry": { "x": -13571269.702098157, "y": 5673835.891734345 }
    },
    {
      "attributes": {
        "cameraId": 435,
        "publishedImageId": 1881,
        "filename": "US26 at Hwy35_pid1881.JPG",
        "iconType": 1,
        "latitude": 45.28315,
        "longitude": -121.71364,
        "route": "US26  ",
        "title": "US26 at Hwy35",
        "videoId": 0
      },
      "geometry": { "x": -13549100.425509765, "y": 5666208.3501472995 }
    },
    {
      "attributes": {
        "cameraId": 437,
        "publishedImageId": 1887,
        "filename": "US26 at Trillium Lake EB_pid1887.JPG",
        "iconType": 1,
        "latitude": 45.28413,
        "longitude": -121.72479,
        "route": "US26  ",
        "title": "US26 at Trillium Lake",
        "videoId": 0
      },
      "geometry": { "x": -13550341.637831937, "y": 5666363.400556605 }
    },
    {
      "attributes": {
        "cameraId": 439,
        "publishedImageId": 1890,
        "filename": "Spring Creek Bottom_pid1890.JPG",
        "iconType": 1,
        "latitude": 42.65397,
        "longitude": -121.87792,
        "route": "US97  ",
        "title": "US97 at Spring Creek  (Bottom of Grade)",
        "videoId": 0
      },
      "geometry": { "x": -13567387.99145474, "y": 5259449.990791397 }
    },
    {
      "attributes": {
        "cameraId": 438,
        "publishedImageId": 1893,
        "filename": "Redmond Highland_pid1893.JPG",
        "iconType": 1,
        "latitude": 44.26955,
        "longitude": -121.17324,
        "route": "OR126 ",
        "title": "OR126  Highland Ave at SW 5th St ",
        "videoId": 0
      },
      "geometry": { "x": -13488943.372693453, "y": 5507250.8631787505 }
    },
    {
      "attributes": {
        "cameraId": 440,
        "publishedImageId": 1899,
        "filename": "US26 at Govn Camp Maint_pid1899.JPG",
        "iconType": 1,
        "latitude": 45.30184,
        "longitude": -121.744,
        "route": "US26  ",
        "title": "US26 at Government Camp Maint",
        "videoId": 0
      },
      "geometry": { "x": -13552480.08524978, "y": 5669165.844654053 }
    },
    {
      "attributes": {
        "cameraId": 443,
        "publishedImageId": 1912,
        "filename": "US26 at Staleys Junction_pid1912.JPG",
        "iconType": 1,
        "latitude": 45.68278,
        "longitude": -123.19676,
        "route": "US26  ",
        "title": "US26 at Staleys Junction",
        "videoId": 0
      },
      "geometry": { "x": -13714200.588672103, "y": 5729659.403697754 }
    },
    {
      "attributes": {
        "cameraId": 446,
        "publishedImageId": 1919,
        "filename": "Blue Box Pass_pid1919.JPG",
        "iconType": 1,
        "latitude": 45.20802,
        "longitude": -121.69786,
        "route": "US26  ",
        "title": "US26 at Blue Box Pass Summit",
        "videoId": 0
      },
      "geometry": { "x": -13547343.803945291, "y": 5654329.642442236 }
    },
    {
      "attributes": {
        "cameraId": 447,
        "publishedImageId": 1923,
        "filename": "Lava Butte S_pid1923.JPG",
        "iconType": 1,
        "latitude": 43.90677,
        "longitude": -121.35743,
        "route": "US97  ",
        "title": "US97 at Lava Butte",
        "videoId": 0
      },
      "geometry": { "x": -13509447.309699811, "y": 5451025.942434743 }
    },
    {
      "attributes": {
        "cameraId": 449,
        "publishedImageId": 1965,
        "filename": "I-5 at Martin Creek SB_pid1965.JPG",
        "iconType": 1,
        "latitude": 43.75657,
        "longitude": -123.09645,
        "route": "I-5   ",
        "title": "I-5 at Martin Creek",
        "videoId": 0
      },
      "geometry": { "x": -13703034.130552183, "y": 5427847.786431894 }
    },
    {
      "attributes": {
        "cameraId": 450,
        "publishedImageId": 1977,
        "filename": "Jacksonville Hill EB_pid1977.JPG",
        "iconType": 1,
        "latitude": 42.29126,
        "longitude": -122.99404,
        "route": "ORE238",
        "title": "ORE238 at Jacksonville Hill",
        "videoId": 0
      },
      "geometry": { "x": -13691633.901501631, "y": 5204709.122633145 }
    },
    {
      "attributes": {
        "cameraId": 451,
        "publishedImageId": 1980,
        "filename": "Jacksonville Hill WB_pid1980.JPG",
        "iconType": 1,
        "latitude": 42.29126,
        "longitude": -122.99404,
        "route": "ORE238",
        "title": "ORE238 at Jacksonville Hill",
        "videoId": 0
      },
      "geometry": { "x": -13691633.901501631, "y": 5204709.122633145 }
    },
    {
      "attributes": {
        "cameraId": 453,
        "publishedImageId": 2107,
        "filename": "OR99W at Durham Rd_pid2107.JPG",
        "iconType": 1,
        "latitude": 45.40467,
        "longitude": -122.79668,
        "route": "ORE99W",
        "title": "OR99W at Durham Rd",
        "videoId": 0
      },
      "geometry": { "x": -13669663.886801727, "y": 5685455.069797884 }
    },
    {
      "attributes": {
        "cameraId": 452,
        "publishedImageId": 2110,
        "filename": "OR99W at McDonald_pid2110.JPG",
        "iconType": 1,
        "latitude": 45.41855,
        "longitude": -122.78765,
        "route": "OR99W ",
        "title": "OR99W at McDonald",
        "videoId": 0
      },
      "geometry": { "x": -13668658.671800004, "y": 5687656.060204594 }
    },
    {
      "attributes": {
        "cameraId": 456,
        "publishedImageId": 2119,
        "filename": "US97 at Crescent North_pid2119.JPG",
        "iconType": 1,
        "latitude": 43.46236,
        "longitude": -121.69624,
        "route": "US97  ",
        "title": "US97 at Crescent",
        "videoId": 0
      },
      "geometry": { "x": -13547163.46637023, "y": 5382614.653375916 }
    },
    {
      "attributes": {
        "cameraId": 458,
        "publishedImageId": 2257,
        "filename": "I-5 at Sutherlin NB_pid2257.JPG",
        "iconType": 1,
        "latitude": 43.3892,
        "longitude": -123.33727,
        "route": "I-5   ",
        "title": "I-5 at Sutherlin",
        "videoId": 0
      },
      "geometry": { "x": -13729842.09032129, "y": 5371400.935935159 }
    },
    {
      "attributes": {
        "cameraId": 459,
        "publishedImageId": 2261,
        "filename": "I-5 at Sutherlin SB_pid2261.JPG",
        "iconType": 1,
        "latitude": 43.3892,
        "longitude": -123.33727,
        "route": "I-5   ",
        "title": "I-5 at Sutherlin",
        "videoId": 0
      },
      "geometry": { "x": -13729842.09032129, "y": 5371400.935935159 }
    },
    {
      "attributes": {
        "cameraId": 460,
        "publishedImageId": 2265,
        "filename": "I-5 at Exit 162 NB_pid2265.JPG",
        "iconType": 1,
        "latitude": 43.70762,
        "longitude": -123.21911,
        "route": "I-5   ",
        "title": "I-5 at Exit 162",
        "videoId": 0
      },
      "geometry": { "x": -13716688.579290986, "y": 5420306.629257939 }
    },
    {
      "attributes": {
        "cameraId": 461,
        "publishedImageId": 2270,
        "filename": "I-5 at Exit 162 SB_pid2270.JPG",
        "iconType": 1,
        "latitude": 43.70762,
        "longitude": -123.21911,
        "route": "I-5   ",
        "title": "I-5 at Exit 162",
        "videoId": 0
      },
      "geometry": { "x": -13716688.579290986, "y": 5420306.629257939 }
    },
    {
      "attributes": {
        "cameraId": 463,
        "publishedImageId": 2277,
        "filename": "OR22 at Detroit Ranger Station_pid2277.JPG",
        "iconType": 1,
        "latitude": 44.7326,
        "longitude": -122.16974,
        "route": "ORE22 ",
        "title": "ORE22 at Detroit Ranger Station",
        "videoId": 0
      },
      "geometry": { "x": -13599873.24525351, "y": 5579522.604388665 }
    },
    {
      "attributes": {
        "cameraId": 464,
        "publishedImageId": 2282,
        "filename": "US20 at Sweet Home_pid2282.JPG",
        "iconType": 1,
        "latitude": 44.41004,
        "longitude": -122.65274,
        "route": "US20  ",
        "title": "US20 at Sweet Home",
        "videoId": 0
      },
      "geometry": { "x": -13653640.559299174, "y": 5529117.646210883 }
    },
    {
      "attributes": {
        "cameraId": 465,
        "publishedImageId": 2285,
        "filename": "ORE140 at Bly_pid2285.JPG",
        "iconType": 1,
        "latitude": 42.40274,
        "longitude": -121.04595,
        "route": "ORE140",
        "title": "ORE140 at Bly",
        "videoId": 0
      },
      "geometry": { "x": -13474773.51471235, "y": 5221500.163766307 }
    },
    {
      "attributes": {
        "cameraId": 466,
        "publishedImageId": 2289,
        "filename": "ORE230 at ORE138 Diamond Lake_pid2289.JPG",
        "iconType": 1,
        "latitude": 43.12657,
        "longitude": -122.132,
        "route": "ORE230",
        "title": "ORE138 at ORE230 Diamond Lake",
        "videoId": 0
      },
      "geometry": { "x": -13595672.047671556, "y": 5331256.976859791 }
    },
    {
      "attributes": {
        "cameraId": 467,
        "publishedImageId": 2293,
        "filename": "ORE230 at ORE138 Diamond Lake_pid2293.JPG",
        "iconType": 1,
        "latitude": 43.12657,
        "longitude": -122.132,
        "route": "ORE230",
        "title": "ORE138 at ORE230 Diamond Lake",
        "videoId": 0
      },
      "geometry": { "x": -13595672.047671556, "y": 5331256.976859791 }
    },
    {
      "attributes": {
        "cameraId": 469,
        "publishedImageId": 2301,
        "filename": "US101 at Camp Rilea_pid2301.JPG",
        "iconType": 1,
        "latitude": 46.12138,
        "longitude": -123.92577,
        "route": "US101 ",
        "title": "US101 at Camp Rilea",
        "videoId": 0
      },
      "geometry": { "x": -13795353.610644009, "y": 5799821.830952597 }
    },
    {
      "attributes": {
        "cameraId": 462,
        "publishedImageId": 2310,
        "filename": "US26 at Sunset Rest Area_pid2310.JPG",
        "iconType": 1,
        "latitude": 45.79717,
        "longitude": -123.46215,
        "route": "US26  ",
        "title": "US26 at Sunset Rest Area",
        "videoId": 0
      },
      "geometry": { "x": -13743743.668329615, "y": 5747904.933436704 }
    },
    {
      "attributes": {
        "cameraId": 471,
        "publishedImageId": 2316,
        "filename": "US30 at Lewis and Clark Bridge_pid2316.JPG",
        "iconType": 1,
        "latitude": 46.09594,
        "longitude": -122.96946,
        "route": "US30  ",
        "title": "US30 at Lewis and Clark Bridge",
        "videoId": 0
      },
      "geometry": { "x": -13688897.668418312, "y": 5795737.023696201 }
    },
    {
      "attributes": {
        "cameraId": 472,
        "publishedImageId": 2317,
        "filename": "US395 at Stanfield Interchange_pid2317.JPG",
        "iconType": 1,
        "latitude": 45.76377,
        "longitude": -119.20434,
        "route": "US395 ",
        "title": "US395 at Stanfield Interchange",
        "videoId": 0
      },
      "geometry": { "x": -13269766.427301086, "y": 5742573.673213997 }
    },
    {
      "attributes": {
        "cameraId": 473,
        "publishedImageId": 2321,
        "filename": "I-82 at I-84_pid2321.JPG",
        "iconType": 1,
        "latitude": 45.8008,
        "longitude": -119.3859,
        "route": "I-82  ",
        "title": "I-82 at I-84 - Westland Rd.",
        "videoId": 0
      },
      "geometry": { "x": -13289977.5940467, "y": 5748484.541321612 }
    },
    {
      "attributes": {
        "cameraId": 474,
        "publishedImageId": 2325,
        "filename": "I-84 at Clover Creek EB_pid2325.JPG",
        "iconType": 1,
        "latitude": 45.1239,
        "longitude": -117.9634,
        "route": "I-84  ",
        "title": "I-84 at Clover Creek",
        "videoId": 0
      },
      "geometry": { "x": -13131625.618415311, "y": 5641048.140302523 }
    },
    {
      "attributes": {
        "cameraId": 417,
        "publishedImageId": 2331,
        "filename": "US26 at Firwood Rd_pid2331.JPG",
        "iconType": 1,
        "latitude": 45.37609,
        "longitude": -122.22311,
        "route": "US26  ",
        "title": "US26 at Firwood Rd",
        "videoId": 0
      },
      "geometry": { "x": -13605814.366476317, "y": 5680924.761794914 }
    },
    {
      "attributes": {
        "cameraId": 416,
        "publishedImageId": 2332,
        "filename": "US26 at Cherryville Dr_pid2332.JPG",
        "iconType": 1,
        "latitude": 45.36687,
        "longitude": -122.14291,
        "route": "US26  ",
        "title": "US26 at Cherryville Dr",
        "videoId": 0
      },
      "geometry": { "x": -13596886.54331594, "y": 5679463.75836151 }
    },
    {
      "attributes": {
        "cameraId": 475,
        "publishedImageId": 2336,
        "filename": "US101 at Gold Beach_pid2336.JPG",
        "iconType": 1,
        "latitude": 42.42905,
        "longitude": -124.41323,
        "route": "US101 ",
        "title": "US101 at Gold Beach",
        "videoId": 0
      },
      "geometry": { "x": -13849617.409618545, "y": 5225467.306985882 }
    },
    {
      "attributes": {
        "cameraId": 476,
        "publishedImageId": 2340,
        "filename": "I-5 at Hugo NB_pid2340.JPG",
        "iconType": 1,
        "latitude": 42.53673,
        "longitude": -123.36976,
        "route": "I-5   ",
        "title": "I-5 at Hugo",
        "videoId": 0
      },
      "geometry": { "x": -13733458.86057666, "y": 5241721.175414198 }
    },
    {
      "attributes": {
        "cameraId": 477,
        "publishedImageId": 2344,
        "filename": "I-5 at Hugo SB_pid2344.JPG",
        "iconType": 1,
        "latitude": 42.53673,
        "longitude": -123.36976,
        "route": "I-5   ",
        "title": "I-5 at Hugo",
        "videoId": 0
      },
      "geometry": { "x": -13733458.86057666, "y": 5241721.175414198 }
    },
    {
      "attributes": {
        "cameraId": 479,
        "publishedImageId": 2349,
        "filename": "US101 at Reedsport_pid2349.JPG",
        "iconType": 1,
        "latitude": 43.70112,
        "longitude": -124.10767,
        "route": "US101 ",
        "title": "US101 at Reedsport",
        "videoId": 0
      },
      "geometry": { "x": -13815602.626016486, "y": 5419305.713186116 }
    },
    {
      "attributes": {
        "cameraId": 480,
        "publishedImageId": 2353,
        "filename": "ORE42 at Coquille_pid2353.JPG",
        "iconType": 1,
        "latitude": 43.17426,
        "longitude": -124.19721,
        "route": "ORE42 ",
        "title": "ORE42 at Coquille",
        "videoId": 0
      },
      "geometry": { "x": -13825570.17322073, "y": 5338533.720773799 }
    },
    {
      "attributes": {
        "cameraId": 485,
        "publishedImageId": 2369,
        "filename": "ORE370 at Lone Pine Rd_pid2369.JPG",
        "iconType": 1,
        "latitude": 44.33085,
        "longitude": -121.08852,
        "route": "ORE370",
        "title": "ORE370 at Lone Pine Rd",
        "videoId": 0
      },
      "geometry": { "x": -13479512.38543476, "y": 5516785.554050407 }
    },
    {
      "attributes": {
        "cameraId": 486,
        "publishedImageId": 2373,
        "filename": "ORE370 at Lone Pine Rd._pid2373.JPG",
        "iconType": 1,
        "latitude": 44.33085,
        "longitude": -121.08852,
        "route": "ORE370",
        "title": "ORE370 at Lone Pine Rd",
        "videoId": 0
      },
      "geometry": { "x": -13479512.38543476, "y": 5516785.554050407 }
    },
    {
      "attributes": {
        "cameraId": 487,
        "publishedImageId": 2379,
        "filename": "North Powder_pid2379.JPG",
        "iconType": 1,
        "latitude": 45.01381,
        "longitude": -117.91564,
        "route": "I-84  ",
        "title": "I-84 at North Powder",
        "videoId": 0
      },
      "geometry": { "x": -13126308.999535765, "y": 5623695.849343779 }
    },
    {
      "attributes": {
        "cameraId": 488,
        "publishedImageId": 2380,
        "filename": "ORE140 at Warner Mtn Summit_pid2380.JPG",
        "iconType": 1,
        "latitude": 42.23809,
        "longitude": -120.29421,
        "route": "ORE140",
        "title": "ORE140 at Warner Mtn Summit",
        "videoId": 0
      },
      "geometry": { "x": -13391090.200715065, "y": 5196711.162029789 }
    },
    {
      "attributes": {
        "cameraId": 489,
        "publishedImageId": 2384,
        "filename": "US101 at Mc Cullough Bridge_pid2384.JPG",
        "iconType": 1,
        "latitude": 43.43415,
        "longitude": -124.22081,
        "route": "US101 ",
        "title": "US101 at McCullough Bridge",
        "videoId": 0
      },
      "geometry": { "x": -13828197.313203085, "y": 5378289.114339786 }
    },
    {
      "attributes": {
        "cameraId": 490,
        "publishedImageId": 2388,
        "filename": "I-5 at Cottage Grove 2mi South_pid2388.JPG",
        "iconType": 1,
        "latitude": 43.75225,
        "longitude": -123.14477,
        "route": "I-5   ",
        "title": "I-5 at Cottage Grove - 2 miles south",
        "videoId": 0
      },
      "geometry": { "x": -13708413.088346567, "y": 5427182.006211156 }
    },
    {
      "attributes": {
        "cameraId": 491,
        "publishedImageId": 2392,
        "filename": "I-5 at Barton Rd_pid2392.JPG",
        "iconType": 1,
        "latitude": 42.76678,
        "longitude": -123.331,
        "route": "I-5   ",
        "title": "I-5 at Barton Rd",
        "videoId": 0
      },
      "geometry": { "x": -13729144.117114111, "y": 5276540.488432071 }
    },
    {
      "attributes": {
        "cameraId": 492,
        "publishedImageId": 2396,
        "filename": "ORE42 at Camas Mountain_pid2396.JPG",
        "iconType": 1,
        "latitude": 43.0652,
        "longitude": -123.64956,
        "route": "ORE42 ",
        "title": "ORE42 at Camas Mountain",
        "videoId": 0
      },
      "geometry": { "x": -13764606.05409628, "y": 5321901.222434371 }
    },
    {
      "attributes": {
        "cameraId": 493,
        "publishedImageId": 2400,
        "filename": "ORE42 at Camas Mountain_pid2400.JPG",
        "iconType": 1,
        "latitude": 43.0652,
        "longitude": -123.64956,
        "route": "ORE42 ",
        "title": "ORE42 at Camas Mountain",
        "videoId": 0
      },
      "geometry": { "x": -13764606.05409628, "y": 5321901.222434371 }
    },
    {
      "attributes": {
        "cameraId": 495,
        "publishedImageId": 2408,
        "filename": "I-5 at Roseburg - Garden Valley Exit S_pid2408.JPG",
        "iconType": 1,
        "latitude": 43.22709,
        "longitude": -123.36157,
        "route": "I-5   ",
        "title": "I-5 at Roseburg - Garden Valley",
        "videoId": 0
      },
      "geometry": { "x": -13732547.153947185, "y": 5346601.385300755 }
    },
    {
      "attributes": {
        "cameraId": 202,
        "publishedImageId": 2412,
        "filename": "Lakeview_pid2412.JPG",
        "iconType": 1,
        "latitude": 42.17242,
        "longitude": -120.34726,
        "route": "US395 ",
        "title": "US395 at Lakeview",
        "videoId": 0
      },
      "geometry": { "x": -13396995.699700824, "y": 5186842.216705447 }
    },
    {
      "attributes": {
        "cameraId": 191,
        "publishedImageId": 2415,
        "filename": "Paisley_pid2415.JPG",
        "iconType": 1,
        "latitude": 42.69282,
        "longitude": -120.54261,
        "route": "ORE31 ",
        "title": "ORE31 at Paisley",
        "videoId": 0
      },
      "geometry": { "x": -13418741.962224263, "y": 5265332.185310711 }
    },
    {
      "attributes": {
        "cameraId": 496,
        "publishedImageId": 2418,
        "filename": "US20 at Horse Ridge_pid2418.JPG",
        "iconType": 1,
        "latitude": 43.90011,
        "longitude": -120.98703,
        "route": "US20  ",
        "title": "US20 at Horse Ridge",
        "videoId": 0
      },
      "geometry": { "x": -13468214.570315724, "y": 5449996.96525765 }
    },
    {
      "attributes": {
        "cameraId": 478,
        "publishedImageId": 2422,
        "filename": "Center and 17th_pid2422.JPG",
        "iconType": 1,
        "latitude": 44.93939,
        "longitude": -123.01814,
        "route": "CITY  ",
        "title": "Salem - Center and 17th",
        "videoId": 0
      },
      "geometry": { "x": -13694316.701229376, "y": 5611984.722913904 }
    },
    {
      "attributes": {
        "cameraId": 514,
        "publishedImageId": 2426,
        "filename": "12th and State_pid2426.JPG",
        "iconType": 1,
        "latitude": 44.93704,
        "longitude": -123.0272,
        "route": "CITY  ",
        "title": "Salem - 12th and State",
        "videoId": 0
      },
      "geometry": { "x": -13695325.25581582, "y": 5611615.161811718 }
    },
    {
      "attributes": {
        "cameraId": 515,
        "publishedImageId": 2430,
        "filename": "25th and State_pid2430.JPG",
        "iconType": 1,
        "latitude": 44.93256,
        "longitude": -123.01015,
        "route": "CITY  ",
        "title": "Salem - 25th and State",
        "videoId": 0
      },
      "geometry": { "x": -13693427.25849806, "y": 5610910.678714114 }
    },
    {
      "attributes": {
        "cameraId": 497,
        "publishedImageId": 2434,
        "filename": "Commercial and 12th_pid2434.JPG",
        "iconType": 1,
        "latitude": 44.89432,
        "longitude": -123.03628,
        "route": "CITY  ",
        "title": "Salem - Commercial and 12th",
        "videoId": 0
      },
      "geometry": { "x": -13696336.036792084, "y": 5604899.647359342 }
    },
    {
      "attributes": {
        "cameraId": 499,
        "publishedImageId": 2438,
        "filename": "Commercial and Center_pid2438.JPG",
        "iconType": 1,
        "latitude": 44.94374,
        "longitude": -123.03878,
        "route": "CITY  ",
        "title": "Salem - Commercial and Center",
        "videoId": 0
      },
      "geometry": { "x": -13696614.33551903, "y": 5612668.844017953 }
    },
    {
      "attributes": {
        "cameraId": 500,
        "publishedImageId": 2442,
        "filename": "Commercial and Fairview_pid2442.JPG",
        "iconType": 1,
        "latitude": 44.91354,
        "longitude": -123.04521,
        "route": "CITY  ",
        "title": "Salem - Commercial and Fairview",
        "videoId": 0
      },
      "geometry": { "x": -13697330.119844731, "y": 5607920.382305974 }
    },
    {
      "attributes": {
        "cameraId": 501,
        "publishedImageId": 2446,
        "filename": "Commercial and Kuebler_pid2446.JPG",
        "iconType": 1,
        "latitude": 44.88212,
        "longitude": -123.0303,
        "route": "CITY  ",
        "title": "Salem - Commercial and Kuebler",
        "videoId": 0
      },
      "geometry": { "x": -13695670.346237232, "y": 5602982.74313218 }
    },
    {
      "attributes": {
        "cameraId": 502,
        "publishedImageId": 2450,
        "filename": "Commercial and Market_pid2450.JPG",
        "iconType": 1,
        "latitude": 44.952,
        "longitude": -123.03506,
        "route": "CITY  ",
        "title": "Salem - Commercial and Market",
        "videoId": 0
      },
      "geometry": { "x": -13696200.227013336, "y": 5613968.030454909 }
    },
    {
      "attributes": {
        "cameraId": 503,
        "publishedImageId": 2454,
        "filename": "Commercial and Mission_pid2454.JPG",
        "iconType": 1,
        "latitude": 44.93326,
        "longitude": -123.04394,
        "route": "CITY  ",
        "title": "Salem - Commercial and Mission",
        "videoId": 0
      },
      "geometry": { "x": -13697188.744091441, "y": 5611020.750575437 }
    },
    {
      "attributes": {
        "cameraId": 504,
        "publishedImageId": 2458,
        "filename": "Commercial and Trade_pid2458.JPG",
        "iconType": 1,
        "latitude": 44.93848,
        "longitude": -123.04151,
        "route": "CITY  ",
        "title": "Salem - Commercial and Trade",
        "videoId": 0
      },