{
"type": "FeatureCollection",
"name": "world_cup_2026_airports_bc",
"crs": { "type": "name", "properties": { "name": "urn:ogc:def:crs:OGC:1.3:CRS84" } },
"features": [
{ "type": "Feature", "properties": { "icao": "02II", "iata": null, "name": "King Ultralightport", "city": "Westfield", "state": "Indiana", "elevation": 925, "tz": "America/Indiana/Indianapolis" }, "geometry": { "type": "Point", "coordinates": [ -86.210503, 40.062302 ] } },
{ "type": "Feature", "properties": { "icao": "03PS", "iata": null, "name": "Ziggy's Field", "city": "Bellefonte", "state": "Pennsylvania", "elevation": 1050, "tz": "America/New_York" }, "geometry": { "type": "Point", "coordinates": [ -77.905602, 40.849998 ] } },
{ "type": "Feature", "properties": { "icao": "04WA", "iata": null, "name": "Ox Meadows Airport", "city": "Spokane", "state": "Washington", "elevation": 2345, "tz": "America/Los_Angeles" }, "geometry": { "type": "Point", "coordinates": [ -117.436996, 47.581799 ] } },
{ "type": "Feature", "properties": { "icao": "0PA7", "iata": null, "name": "Linvill Airport", "city": "Media", "state": "Pennsylvania", "elevation": 180, "tz": "America/New_York" }, "geometry": { "type": "Point", "coordinates": [ -75.414902, 39.8848 ] } },
{ "type": "Feature", "properties": { "icao": "14ID", "iata": null, "name": "Peaceful Cove Airport", "city": "Boise", "state": "Idaho", "elevation": 2920, "tz": "America/Boise" }, "geometry": { "type": "Point", "coordinates": [ -116.203003, 43.681 ] } },
{ "type": "Feature", "properties": { "icao": "18II", "iata": null, "name": "Mc Gill Airport", "city": "Cicero", "state": "Indiana", "elevation": 855, "tz": "America/Indiana/Indianapolis" }, "geometry": { "type": "Point", "coordinates": [ -86.068298, 40.119999 ] } },
{ "type": "Feature", "properties": { "icao": "1OK2", "iata": null, "name": "Wyatt Airport", "city": "Goldsby", "state": "Oklahoma", "elevation": 1163, "tz": "America/Chicago" }, "geometry": { "type": "Point", "coordinates": [ -97.469803, 35.098701 ] } },
{ "type": "Feature", "properties": { "icao": "39OK", "iata": null, "name": "Paradise Air Haven Airport", "city": "Goldsby", "state": "Oklahoma", "elevation": 1205, "tz": "America/Chicago" }, "geometry": { "type": "Point", "coordinates": [ -97.479301, 35.1115 ] } },
{ "type": "Feature", "properties": { "icao": "3IN9", "iata": null, "name": "Thomas Airport", "city": "Cicero", "state": "Indiana", "elevation": 890, "tz": "America/Indiana/Indianapolis" }, "geometry": { "type": "Point", "coordinates": [ -86.119202, 40.151402 ] } },
{ "type": "Feature", "properties": { "icao": "3NC9", "iata": null, "name": "Womble Field", "city": "Chapel Hill", "state": "North Carolina", "elevation": 475, "tz": "America/New_York" }, "geometry": { "type": "Point", "coordinates": [ -79.087196, 35.875099 ] } },
{ "type": "Feature", "properties": { "icao": "47AZ", "iata": null, "name": "Ray Schnepf Ranch Airport", "city": "Queen Creek", "state": "Arizona", "elevation": 1458, "tz": "America/Phoenix" }, "geometry": { "type": "Point", "coordinates": [ -111.594002, 33.224201 ] } },
{ "type": "Feature", "properties": { "icao": "5AZ3", "iata": null, "name": "Pegasus Airpark", "city": "Queen Creek", "state": "Arizona", "elevation": 1450, "tz": "America/Phoenix" }, "geometry": { "type": "Point", "coordinates": [ -111.616997, 33.212502 ] } },
{ "type": "Feature", "properties": { "icao": "5OK4", "iata": null, "name": "Pacer Field", "city": "Goldsby", "state": "Oklahoma", "elevation": 1140, "tz": "America/Chicago" }, "geometry": { "type": "Point", "coordinates": [ -97.4506, 35.117001 ] } },
{ "type": "Feature", "properties": { "icao": "6NJ9", "iata": null, "name": "Bridgeport-Cahill Field", "city": "Bridgeport", "state": "New Jersey", "elevation": 15, "tz": "America/New_York" }, "geometry": { "type": "Point", "coordinates": [ -75.374603, 39.791801 ] } },
{ "type": "Feature", "properties": { "icao": "6TX3", "iata": null, "name": "Drewery Airport", "city": "Mc Kinney", "state": "Texas", "elevation": 700, "tz": "America/Chicago" }, "geometry": { "type": "Point", "coordinates": [ -96.7836, 33.233501 ] } },
{ "type": "Feature", "properties": { "icao": "8NJ0", "iata": null, "name": "Winchelsea Airport", "city": "Port Republic", "state": "New Jersey", "elevation": 30, "tz": "America/New_York" }, "geometry": { "type": "Point", "coordinates": [ -74.509003, 39.517899 ] } },
{ "type": "Feature", "properties": { "icao": "FD83", "iata": null, "name": "Stout Airport", "city": "Kissimmee", "state": "Florida", "elevation": 65, "tz": "America/New_York" }, "geometry": { "type": "Point", "coordinates": [ -81.384003, 28.2586 ] } },
{ "type": "Feature", "properties": { "icao": "IN51", "iata": null, "name": "Windy Knoll Airport", "city": "Sheridan", "state": "Indiana", "elevation": 920, "tz": "America/Indiana/Indianapolis" }, "geometry": { "type": "Point", "coordinates": [ -86.152496, 40.139999 ] } },
{ "type": "Feature", "properties": { "icao": "IN60", "iata": null, "name": "Wilderness Field", "city": "Westfield", "state": "Indiana", "elevation": 908, "tz": "America/Indiana/Indianapolis" }, "geometry": { "type": "Point", "coordinates": [ -86.160301, 40.017799 ] } },
{ "type": "Feature", "properties": { "icao": "K1K4", "iata": null, "name": "David Jay Perry Airport", "city": "Goldsby", "state": "Oklahoma", "elevation": 1168, "tz": "America/Chicago" }, "geometry": { "type": "Point", "coordinates": [ -97.470398, 35.155102 ] } },
{ "type": "Feature", "properties": { "icao": "KACY", "iata": "ACY", "name": "Atlantic City International Airport", "city": "Atlantic City", "state": "New-Jersey", "elevation": 75, "tz": "America/New_York" }, "geometry": { "type": "Point", "coordinates": [ -74.577202, 39.4576 ] } },
{ "type": "Feature", "properties": { "icao": "KAFF", "iata": "AFF", "name": "USAF Academy Airfield", "city": "Colorado Springs", "state": "Colorado", "elevation": 6572, "tz": "America/Denver" }, "geometry": { "type": "Point", "coordinates": [ -104.813003, 38.9697 ] } },
{ "type": "Feature", "properties": { "icao": "KBCT", "iata": "BCT", "name": "Boca Raton Airport", "city": "Boca Raton", "state": "Florida", "elevation": 13, "tz": "America/New_York" }, "geometry": { "type": "Point", "coordinates": [ -80.107697, 26.3785 ] } },
{ "type": "Feature", "properties": { "icao": "KBFI", "iata": "BFI", "name": "Boeing Field King County International Airport", "city": "Seattle", "state": "Washington", "elevation": 21, "tz": "America/Los_Angeles" }, "geometry": { "type": "Point", "coordinates": [ -122.302002, 47.529999 ] } },
{ "type": "Feature", "properties": { "icao": "KBOI", "iata": "BOI", "name": "Boise Air Terminal/Gowen field", "city": "Boise", "state": "Idaho", "elevation": 2871, "tz": "America/Boise" }, "geometry": { "type": "Point", "coordinates": [ -116.223, 43.5644 ] } },
{ "type": "Feature", "properties": { "icao": "KCPS", "iata": "CPS", "name": "St Louis Downtown Airport", "city": "Cahokia/St Louis", "state": "Illinois", "elevation": 413, "tz": "America/Chicago" }, "geometry": { "type": "Point", "coordinates": [ -90.156197, 38.570702 ] } },
{ "type": "Feature", "properties": { "icao": "KCUB", "iata": "CUB", "name": "Jim Hamilton L.B. Owens Airport", "city": "Columbia", "state": "South-Carolina", "elevation": 193, "tz": "America/New_York" }, "geometry": { "type": "Point", "coordinates": [ -80.995201, 33.970501 ] } },
{ "type": "Feature", "properties": { "icao": "KDCA", "iata": "DCA", "name": "Ronald Reagan Washington National Airport", "city": "Washington", "state": "Virginia", "elevation": 15, "tz": "America/New_York" }, "geometry": { "type": "Point", "coordinates": [ -77.037697, 38.8521 ] } },
{ "type": "Feature", "properties": { "icao": "KDMA", "iata": "DMA", "name": "Davis Monthan Air Force Base", "city": "Tucson", "state": "Arizona", "elevation": 2704, "tz": "America/Phoenix" }, "geometry": { "type": "Point", "coordinates": [ -110.883003, 32.1665 ] } },
{ "type": "Feature", "properties": { "icao": "KEWR", "iata": "EWR", "name": "Newark Liberty International Airport", "city": "Newark", "state": "New-Jersey", "elevation": 18, "tz": "America/New_York" }, "geometry": { "type": "Point", "coordinates": [ -74.168701, 40.692501 ] } },
{ "type": "Feature", "properties": { "icao": "KIGX", "iata": null, "name": "Horace Williams Airport", "city": "Chapel Hill", "state": "North-Carolina", "elevation": 512, "tz": "America/New_York" }, "geometry": { "type": "Point", "coordinates": [ -79.065903, 35.935001 ] } },
{ "type": "Feature", "properties": { "icao": "KISM", "iata": "ISM", "name": "Kissimmee Gateway Airport", "city": "Orlando", "state": "Florida", "elevation": 82, "tz": "America/New_York" }, "geometry": { "type": "Point", "coordinates": [ -81.437103, 28.289801 ] } },
{ "type": "Feature", "properties": { "icao": "KIWA", "iata": "AZA", "name": "Phoenix-Mesa-Gateway Airport", "city": "Phoenix", "state": "Arizona", "elevation": 1382, "tz": "America/Phoenix" }, "geometry": { "type": "Point", "coordinates": [ -111.654999, 33.3078 ] } },
{ "type": "Feature", "properties": { "icao": "KLOU", "iata": "LOU", "name": "Bowman Field", "city": "Louisville", "state": "Kentucky", "elevation": 546, "tz": "America/Kentucky/Louisville" }, "geometry": { "type": "Point", "coordinates": [ -85.663696, 38.228001 ] } },
{ "type": "Feature", "properties": { "icao": "KMAC", "iata": "MAC", "name": "Macon Downtown Airport", "city": "Macon", "state": "Georgia", "elevation": 437, "tz": "America/New_York" }, "geometry": { "type": "Point", "coordinates": [ -83.561996, 32.822102 ] } },
{ "type": "Feature", "properties": { "icao": "KMGE", "iata": "MGE", "name": "Dobbins Air Reserve Base Airport", "city": "Marietta", "state": "Georgia", "elevation": 1068, "tz": "America/New_York" }, "geometry": { "type": "Point", "coordinates": [ -84.516296, 33.915401 ] } },
{ "type": "Feature", "properties": { "icao": "KMKC", "iata": "MKC", "name": "Charles B. Wheeler Downtown Airport", "city": "Kansas City", "state": "Missouri", "elevation": 759, "tz": "America/Chicago" }, "geometry": { "type": "Point", "coordinates": [ -94.592796, 39.123199 ] } },
{ "type": "Feature", "properties": { "icao": "KN96", "iata": null, "name": "Bellefonte Airport", "city": "Bellefonte", "state": "Pennsylvania", "elevation": 1071, "tz": "America/New_York" }, "geometry": { "type": "Point", "coordinates": [ -77.816299, 40.885502 ] } },
{ "type": "Feature", "properties": { "icao": "KOUN", "iata": "OUN", "name": "University of Oklahoma Westheimer Airport", "city": "Norman", "state": "Oklahoma", "elevation": 1182, "tz": "America/Chicago" }, "geometry": { "type": "Point", "coordinates": [ -97.472099, 35.245602 ] } },
{ "type": "Feature", "properties": { "icao": "KRBD", "iata": "RBD", "name": "Dallas Executive Airport", "city": "Dallas", "state": "Texas", "elevation": 660, "tz": "America/Chicago" }, "geometry": { "type": "Point", "coordinates": [ -96.868202, 32.680901 ] } },
{ "type": "Feature", "properties": { "icao": "KRNT", "iata": "RNT", "name": "Renton Municipal Airport", "city": "Renton", "state": "Washington", "elevation": 32, "tz": "America/Los_Angeles" }, "geometry": { "type": "Point", "coordinates": [ -122.216003, 47.493099 ] } },
{ "type": "Feature", "properties": { "icao": "KRYY", "iata": null, "name": "Cobb County-Mc Collum Field", "city": "Atlanta", "state": "Georgia", "elevation": 1040, "tz": "America/New_York" }, "geometry": { "type": "Point", "coordinates": [ -84.598602, 34.013199 ] } },
{ "type": "Feature", "properties": { "icao": "KSAT", "iata": "SAT", "name": "San Antonio International Airport", "city": "San Antonio", "state": "Texas", "elevation": 809, "tz": "America/Chicago" }, "geometry": { "type": "Point", "coordinates": [ -98.469803, 29.533701 ] } },
{ "type": "Feature", "properties": { "icao": "KSBA", "iata": "SBA", "name": "Santa Barbara Municipal Airport", "city": "Santa Barbara", "state": "California", "elevation": 13, "tz": "America/Los_Angeles" }, "geometry": { "type": "Point", "coordinates": [ -119.839996, 34.426201 ] } },
{ "type": "Feature", "properties": { "icao": "KSDF", "iata": "SDF", "name": "Louisville International Standiford Field", "city": "Louisville", "state": "Kentucky", "elevation": 501, "tz": "America/Kentucky/Louisville" }, "geometry": { "type": "Point", "coordinates": [ -85.736, 38.1744 ] } },
{ "type": "Feature", "properties": { "icao": "KSEA", "iata": "SEA", "name": "Seattle Tacoma International Airport", "city": "Seattle", "state": "Washington", "elevation": 433, "tz": "America/Los_Angeles" }, "geometry": { "type": "Point", "coordinates": [ -122.308998, 47.449001 ] } },
{ "type": "Feature", "properties": { "icao": "KSFF", "iata": "SFF", "name": "Felts Field", "city": "Spokane", "state": "Oregon", "elevation": 1953, "tz": "America/Los_Angeles" }, "geometry": { "type": "Point", "coordinates": [ -117.322998, 47.6828 ] } },
{ "type": "Feature", "properties": { "icao": "KTPA", "iata": "TPA", "name": "Tampa International Airport", "city": "Tampa", "state": "Florida", "elevation": 26, "tz": "America/New_York" }, "geometry": { "type": "Point", "coordinates": [ -82.533203, 27.9755 ] } },
{ "type": "Feature", "properties": { "icao": "KTUS", "iata": "TUS", "name": "Tucson International Airport", "city": "Tucson", "state": "Arizona", "elevation": 2643, "tz": "America/Phoenix" }, "geometry": { "type": "Point", "coordinates": [ -110.941002, 32.1161 ] } },
{ "type": "Feature", "properties": { "icao": "KUNV", "iata": "SCE", "name": "University Park Airport", "city": "State College", "state": "Pennsylvania", "elevation": 1239, "tz": "America/New_York" }, "geometry": { "type": "Point", "coordinates": [ -77.848701, 40.8493 ] } },
{ "type": "Feature", "properties": { "icao": "KVUO", "iata": null, "name": "Pearson Field", "city": "Vancouver", "state": "Washington", "elevation": 25, "tz": "America/Los_Angeles" }, "geometry": { "type": "Point", "coordinates": [ -122.655998, 45.620499 ] } },
{ "type": "Feature", "properties": { "icao": "MMPC", "iata": null, "name": "Ingeniero Juan Guillermo Villasana Airport", "city": null, "state": "Hidalgo", "elevation": 7600, "tz": "America/Mexico_City" }, "geometry": { "type": "Point", "coordinates": [ -98.782501, 20.0774 ] } },
{ "type": "Feature", "properties": { "icao": "MMTC", "iata": "TRC", "name": "Francisco Sarabia International Airport", "city": "Torreon", "state": "Coahuila", "elevation": 3688, "tz": "America/Monterrey" }, "geometry": { "type": "Point", "coordinates": [ -103.411003, 25.5683 ] } },
{ "type": "Feature", "properties": { "icao": "MMTO", "iata": "TLC", "name": "Licenciado Adolfo Lopez Mateos International Airport", "city": "Toluca", "state": "Mexico", "elevation": 8466, "tz": "America/Mexico_City" }, "geometry": { "type": "Point", "coordinates": [ -99.566002, 19.337099 ] } },
{ "type": "Feature", "properties": { "icao": "OK02", "iata": null, "name": "Dick's Airport", "city": "Goldsby", "state": "Oklahoma", "elevation": 1160, "tz": "America/Chicago" }, "geometry": { "type": "Point", "coordinates": [ -97.481697, 35.110802 ] } },
{ "type": "Feature", "properties": { "icao": "SN81", "iata": null, "name": "Hancock Airport", "city": "Piper", "state": "Kansas", "elevation": 940, "tz": "America/Chicago" }, "geometry": { "type": "Point", "coordinates": [ -94.870003, 39.1819 ] } },
{ "type": "Feature", "properties": { "icao": "TA77", "iata": null, "name": "Cottonpatch Aerodrome", "city": "Frisco", "state": "Texas", "elevation": 580, "tz": "America/Chicago" }, "geometry": { "type": "Point", "coordinates": [ -96.898903, 33.1493 ] } },
{ "type": "Feature", "properties": { "icao": "UT08", "iata": null, "name": "Camp Williams Airfield", "city": "Camp Williams", "state": "Utah", "elevation": 4860, "tz": "America/Denver" }, "geometry": { "type": "Point", "coordinates": [ -111.931, 40.4319 ] } },
{ "type": "Feature", "properties": { "icao": "UT13", "iata": null, "name": "Number 18 Airport", "city": "South Jordan", "state": "Utah", "elevation": 4820, "tz": "America/Denver" }, "geometry": { "type": "Point", "coordinates": [ -112.014, 40.5639 ] } }
]
}
